{"type":"FeatureCollection","features":[{"type":"Feature","properties":{"pid":"586xj6b3j","name":"洞爺国道","cn":0,"aid":100040,"ja":"天体のメソッド","cn_anime":"天体的秩序","color":"#1fbcff","ep":1,"s":0,"image":"https://image.anitabi.cn/points/100040/586xj6b3j_1672890791129.jpg?plan=h360"},"geometry":{"type":"Point","coordinates":[140.798599,42.56976]}},{"type":"Feature","properties":{"pid":"4ywpa6aww","name":"のぞき坂","cn":0,"aid":100403,"ja":"冴えない彼女の育てかた","cn_anime":"路人女主的养成方法","color":"#8eaac6","ep":1,"s":0,"image":"https://image.anitabi.cn/user/0/bangumi/100403/points/4ywpa6aww-1718286534903.jpg?plan=h360"},"geometry":{"type":"Point","coordinates":[139.713705,35.717257]}},{"type":"Feature","properties":{"pid":"t0y182p5j","name":"Lalaport Tokyo-bay","cn":"Lalaport Tokyo-bay","aid":100405,"ja":"ハロー!!きんいろモザイク","cn_anime":"HELLO!! 黄金拼图","color":"#395571","ep":0,"s":0,"image":"https://image.anitabi.cn/user/0/bangumi/57978/points/t0y182p5j-1740029565091.jpg?plan=h360"},"geometry":{"type":"Point","coordinates":[139.990196,35.686495]}},{"type":"Feature","properties":{"pid":"bd03qsxzs","name":"ダイヤ​と​花​の​大​観覧車","cn":"Diamond和花之​大观览车","aid":100443,"ja":"残響のテロル","cn_anime":"东京残响","color":"#0e2a47","ep":0,"s":0,"image":"https://image.anitabi.cn/user/0/bangumi/100443/points/bd03qsxzs-1690194751160.jpg?plan=h360"},"geometry":{"type":"Point","coordinates":[139.857182,35.643912]}},{"type":"Feature","properties":{"pid":"51i51ymjb","name":"宮園かをりが黒猫を発見した場所","cn":0,"aid":100444,"ja":"四月は君の嘘","cn_anime":"四月是你的谎言","color":"#f28697","ep":0,"s":"zlZiOItqQZ24.k0wqLHNw-v_Q","image":"https://image.anitabi.cn/user/1130/bangumi/100444/points/51i51ymjb-1719991258366.jpg?plan=h360"},"geometry":{"type":"Point","coordinates":[139.599856,35.739261]}},{"type":"Feature","properties":{"pid":"p6bigjnjy","name":"六甲道駅","cn":"JR六甲道站前","aid":10119,"ja":"天神乱漫 -LUCKY or UNLUCKY!?-","cn_anime":null,"color":"#6a8a95","ep":0,"s":0,"image":"https://image.anitabi.cn/points/10119/p6bigjnjy_1729166287798.jpg?plan=h360"},"geometry":{"type":"Point","coordinates":[135.238613,34.714287]}},{"type":"Feature","properties":{"pid":"afn6yq","name":"東埼灯台","cn":0,"aid":10120,"ja":"夏空カナタ","cn_anime":"夏空彼方","color":"#5555aa","ep":0,"s":0,"image":"https://image.anitabi.cn/user/1093/bangumi/10120/points/afn6yq-1747641365886.jpg?plan=h360"},"geometry":{"type":"Point","coordinates":[123.04293,24.462377]}},{"type":"Feature","properties":{"pid":"51i525gl1","name":"竹下通り","cn":0,"aid":101399,"ja":"アイドルマスター シンデレラガールズ","cn_anime":"偶像大师 灰姑娘女孩","color":"#2582c4","ep":0,"s":"zdM6qTIlrilQ.kYyYg6QOsbeY","image":"https://image.anitabi.cn/user/0/bangumi/101399/points/51i525gl1-1726300961568.jpg?plan=h360"},"geometry":{"type":"Point","coordinates":[139.703124,35.671565]}},{"type":"Feature","properties":{"pid":"n81cc02nu","name":"丸子橋","cn":0,"aid":1014,"ja":"とある魔術の禁書目録","cn_anime":"魔法禁书目录","color":"#9edaff","ep":0,"s":0,"image":"https://image.anitabi.cn/user/1181/bangumi/1014/points/n81cc02nu-1723658623502.jpg?plan=h360"},"geometry":{"type":"Point","coordinates":[139.668995,35.585491]}},{"type":"Feature","properties":{"pid":"vgfsfm4m9","name":"式根岛","cn":0,"aid":1020,"ja":"うみねこのなく頃に","cn_anime":"海猫鸣泣之时","color":"#5b5bdb","ep":0,"s":0,"image":"https://image.anitabi.cn/user/0/bangumi/1020/points/vgfsfm4m9-1746885977748.jpg?plan=h360"},"geometry":{"type":"Point","coordinates":[139.210102,34.325964]}},{"type":"Feature","properties":{"pid":"mbfyao2mh","name":"京都站","cn":"京都站","aid":102134,"ja":"やはり俺の青春ラブコメはまちがっている。続","cn_anime":"我的青春恋爱物语果然有问题 续","color":"#956a75","ep":0,"s":0,"image":"https://image.anitabi.cn/user/0/bangumi/102134/points/mbfyao2mh-1721104407664.jpg?plan=h360"},"geometry":{"type":"Point","coordinates":[135.759086,34.98617]}},{"type":"Feature","properties":{"pid":"kpx6ofn63","name":"World Market 周辺","cn":0,"aid":10227,"ja":"Aチャンネル","cn_anime":"A频道","color":"#808080","ep":0,"s":"1gsdJOds6VdMF_Zh0MJGbra0DwNU","image":"https://image.anitabi.cn/points/10227/kpx6ofn63_1732973318579.jpg?plan=h360"},"geometry":{"type":"Point","coordinates":[139.447194,35.691295]}},{"type":"Feature","properties":{"pid":"na52kr9np","name":"Église de la Sainte-Trinité","cn":"巴黎圣三一教堂","aid":10261,"ja":"異国迷路のクロワーゼ The Animation","cn_anime":"异国迷宫的十字路口","color":"#bf4040","ep":0,"s":0,"image":"https://image.anitabi.cn/points/10261/na52kr9np_1723823462876.jpg?plan=h360"},"geometry":{"type":"Point","coordinates":[2.331484,48.877056]}},{"type":"Feature","properties":{"pid":"un4lhmgx7","name":"秋叶原","cn":0,"aid":103127,"ja":"デンキ街の本屋さん","cn_anime":"电器街的漫画店","color":"#ffbf00","ep":0,"s":0,"image":"https://image.anitabi.cn/points/103127/un4lhmgx7_1744693921299_c16v9.jpg?plan=h360"},"geometry":{"type":"Point","coordinates":[139.771359,35.699649]}},{"type":"Feature","properties":{"pid":"ikcx862zq","name":"郡上大和駅","cn":0,"aid":10377,"ja":"電波女と青春男","cn_anime":"电波女与青春男","color":"#0fcff5","ep":0,"s":"19kn8JGKfGNI0GGseFXg-LsUT6CnJiMI","image":"https://image.anitabi.cn/points/10377/ikcx862zq_1710585713344.jpg?plan=h360"},"geometry":{"type":"Point","coordinates":[136.895072,35.815107]}},{"type":"Feature","properties":{"pid":"kpx6og6ii","name":"液晶工房（閉店）","cn":0,"aid":10380,"ja":"STEINS;GATE","cn_anime":"命运石之门","color":"#8e8ec6","ep":0,"s":"1ETfERFhxsc9JGJgsDVvh-qQidsU","image":"https://image.anitabi.cn/user/0/bangumi/10380/points/kpx6og6ii-1729181624798.jpg?plan=h360"},"geometry":{"type":"Point","coordinates":[139.770003,35.702598]}},{"type":"Feature","properties":{"pid":"a4yyy6kt","name":"旧秩父橋","cn":"旧秩父桥","aid":10440,"ja":"あの日見た花の名前を僕達はまだ知らない。","cn_anime":"我们仍未知道那天所看见的花的名字。","color":"#002aaa","ep":0,"s":0,"image":"https://image.anitabi.cn/user/1000/bangumi/10440/points/a4yyy6kt-1673007748617.jpg?plan=h360"},"geometry":{"type":"Point","coordinates":[139.086367,36.018724]}},{"type":"Feature","properties":{"pid":"kwkt8d","name":"鉄板中華 青山シャンウェイ","cn":0,"aid":104614,"ja":"孤独のグルメ Season4","cn_anime":"孤独的美食家 第四季","color":"#5b5bdb","ep":0,"s":0,"image":"https://image.anitabi.cn/points/104614/kwkt8d_1748274410934.jpg?plan=h360"},"geometry":{"type":"Point","coordinates":[139.703969,35.681073]}},{"type":"Feature","properties":{"pid":"swcu0sd22","name":"山下公園","cn":"山下公园","aid":1048,"ja":"君が望む永遠","cn_anime":"你所期望的永远","color":"#adabf4","ep":0,"s":0,"image":"https://image.anitabi.cn/user/2171/bangumi/1048/points/swcu0sd22-1739670093680.jpg?plan=h360"},"geometry":{"type":"Point","coordinates":[139.649584,35.445878]}},{"type":"Feature","properties":{"pid":"mtnss7wkb","name":"文佐食堂","cn":"文佐食堂（海猫食堂）","aid":105045,"ja":"海街diary","cn_anime":"海街日记","color":"#232e32","ep":0,"s":0,"image":"https://image.anitabi.cn/points/105045/mtnss7wkb_1725133061393.jpg?plan=h360"},"geometry":{"type":"Point","coordinates":[139.481909,35.299977]}},{"type":"Feature","properties":{"pid":"nqk4ss5sc","name":"巴黎圣母院","cn":"巴黎圣母院","aid":105649,"ja":"Assassin's Creed: Unity","cn_anime":"刺客信条：大革命","color":"#5b5bdb","ep":0,"s":0,"image":"https://image.anitabi.cn/user/0/bangumi/105649/points/nqk4ss5sc-1725110684417.jpg?plan=h360"},"geometry":{"type":"Point","coordinates":[2.35077,48.852706]}},{"type":"Feature","properties":{"pid":"mjrpg4yo3","name":"民宿甚左衛門","cn":"旅馆万代旧馆原型，主人公住所","aid":10609,"ja":"星空へ架かる橋","cn_anime":"架向星空之桥","color":"#ff9500","ep":0,"s":0,"image":"https://image.anitabi.cn/user/1073/bangumi/10609/points/mjrpg4yo3-1732123543151.jpg?plan=h360"},"geometry":{"type":"Point","coordinates":[137.21822,36.076113]}},{"type":"Feature","properties":{"pid":"nstqa5i3w","name":"散歩道","cn":0,"aid":106372,"ja":"栞と紙魚子","cn_anime":"栞与纸鱼子","color":"#714739","ep":0,"s":0,"image":"https://image.anitabi.cn/points/106372/nstqa5i3w_1725289880776.jpg?plan=h360"},"geometry":{"type":"Point","coordinates":[139.589214,35.68891]}},{"type":"Feature","properties":{"pid":"4yd5jp8pb","name":"ホテル​モン​トレ​神戸","cn":"神户蒙特利酒店","aid":10639,"ja":"Fate/Zero","cn_anime":"Fate/Zero","color":"#ffd500","ep":0,"s":0,"image":"https://image.anitabi.cn/user/0/bangumi/10639/points/4yd5jp8pb-1673346161565.jpg?plan=h360"},"geometry":{"type":"Point","coordinates":[135.189981,34.69362]}},{"type":"Feature","properties":{"pid":"7vn2jxgul","name":"根岸駅","cn":"根岸车站","aid":106693,"ja":"がっこうぐらし！","cn_anime":"学园孤岛","color":"#db7676","ep":0,"s":0,"image":"https://image.anitabi.cn/user/0/bangumi/106693/points/7vn2jxgul-1680370561533.jpg?plan=h360"},"geometry":{"type":"Point","coordinates":[139.635037,35.415858]}},{"type":"Feature","properties":{"pid":"51i52agkb","name":"八王子駅南口","cn":0,"aid":106818,"ja":"暗殺教室","cn_anime":"暗杀教室","color":"#e6c700","ep":0,"s":"z60v_I865QYs.kzQZF67mI7aI","image":"https://image.anitabi.cn/user/1751/bangumi/106818/points/51i52agkb-1726149354039.jpg?plan=h360"},"geometry":{"type":"Point","coordinates":[139.338425,35.654398]}},{"type":"Feature","properties":{"pid":"7vngzbyhh","name":"JFK Terminal 7 Arrivals","cn":"JFK T7 到达区","aid":107199,"ja":"ラブライブ! The School Idol Movie","cn_anime":"LoveLive! 学园偶像 电影","color":"#d9018f","ep":0,"s":0,"image":"https://image.anitabi.cn/user/0/bangumi/107199/points/7vngzbyhh-1680371490470.jpg?plan=h360"},"geometry":{"type":"Point","coordinates":[-73.78546,40.648318]}},{"type":"Feature","properties":{"pid":"r8089dn8x","name":"汐入駅","cn":0,"aid":107501,"ja":"ソレヨリノ前奏詩","cn_anime":"永不落幕的前奏诗","color":"#5b5bdb","ep":0,"s":0,"image":"https://image.anitabi.cn/user/2171/bangumi/107501/points/r8089dn8x-1741566265646.jpg?plan=h360"},"geometry":{"type":"Point","coordinates":[139.661919,35.280033]}},{"type":"Feature","properties":{"pid":"v572hq6tk","name":"滨江大道","cn":"滨江大道","aid":10844,"ja":"C","cn_anime":"「C」","color":"#5b5bdb","ep":0,"s":0,"image":"https://image.anitabi.cn/user/0/bangumi/10844/points/v572hq6tk-1746004952606.jpg?plan=h360"},"geometry":{"type":"Point","coordinates":[121.492665,31.242412]}},{"type":"Feature","properties":{"pid":"51i51xbqm","name":"１．三架橋","cn":0,"aid":109328,"ja":"結城友奈は勇者である","cn_anime":"结城友奈是勇者","color":"#f8b1b1","ep":0,"s":"z_PK56cAHdAw.k0IM6LeJ7Lck","image":"https://image.anitabi.cn/user/0/bangumi/109328/points/51i51xbqm-1720013541497.jpg?plan=h360"},"geometry":{"type":"Point","coordinates":[133.65014,34.131877]}},{"type":"Feature","properties":{"pid":"n83m24ve9","name":"見晴橋","cn":0,"aid":109375,"ja":"劇場版 Fate/stay night [Heaven's Feel] I.presage flower","cn_anime":"命运之夜 天之杯：恶兆之花","color":"#912ca5","ep":0,"s":0,"image":"https://image.anitabi.cn/user/1181/bangumi/132555/points/n83m24ve9-1723663596704.jpg?plan=h360"},"geometry":{"type":"Point","coordinates":[139.549123,35.378836]}},{"type":"Feature","properties":{"pid":"u3k04bf8r","name":"长城","cn":0,"aid":109378,"ja":"Fate/Grand Order","cn_anime":"命运-冠位指定","color":"#e3aa71","ep":0,"s":0,"image":"https://image.anitabi.cn/user/2148/bangumi/109378/points/u3k04bf8r-1743055172182.jpg?plan=h360"},"geometry":{"type":"Point","coordinates":[116.004892,40.360486]}},{"type":"Feature","properties":{"pid":"5q87582w","name":"武蔵境駅","cn":0,"aid":110467,"ja":"SHIROBAKO","cn_anime":"白箱","color":"#edb488","ep":0,"s":"1CS8ngrrzFoJtkvwLuNVixBuKvdY","image":"https://image.anitabi.cn/points/110467/5q87582w_1731428069465.jpg?plan=h360"},"geometry":{"type":"Point","coordinates":[139.543358,35.702069]}},{"type":"Feature","properties":{"pid":"5d46366f","name":"⑰西新井大師","cn":0,"aid":110568,"ja":"レーカン！","cn_anime":"灵感少女！","color":"#802a40","ep":0,"s":"19A8fYYgVwBh6j08A1bUHhiSTKdE","image":"https://image.anitabi.cn/points/110568/5d46366f_1729650241818.jpg?plan=h360"},"geometry":{"type":"Point","coordinates":[139.780024,35.779886]}},{"type":"Feature","properties":{"pid":"imnd294ok","name":"八国山公園の西入口広場","cn":0,"aid":110600,"ja":"ローリング☆ガールズ","cn_anime":"旋转少女","color":"#ff1414","ep":0,"s":"1vxCTtNdRE5VhB2NhlxjTPGC6N2-eBw0","image":"https://image.anitabi.cn/points/110600/imnd294ok_1710698105448.jpg?plan=h360"},"geometry":{"type":"Point","coordinates":[139.452075,35.767408]}},{"type":"Feature","properties":{"pid":"p7g66qbqj","name":"対馬丸","cn":"对马丸沉没点","aid":111330,"ja":"対馬丸-さよなら沖縄-","cn_anime":null,"color":"#5b5bdb","ep":0,"s":0,"image":"https://image.anitabi.cn/user/0/bangumi/111330/points/p7g66qbqj-1729254916727.jpg?plan=h360"},"geometry":{"type":"Point","coordinates":[129.566564,29.572953]}},{"type":"Feature","properties":{"pid":"ko2dmcany","name":"山下公園：ガールスカウト像","cn":0,"aid":11180,"ja":"プリティーリズム・オーロラドリーム","cn_anime":"美妙旋律 极光之梦","color":"#ca5240","ep":0,"s":"1np61pFWxkTJRqf9kc_oTxVruidKiwOA","image":"https://image.anitabi.cn/user/0/bangumi/11180/points/ko2dmcany-1725816504649.jpg?plan=h360"},"geometry":{"type":"Point","coordinates":[139.650655,35.445684]}},{"type":"Feature","properties":{"pid":"tkvpujgso","name":"富士顶上浅见神社","cn":"富士顶上浅间神社","aid":112151,"ja":"終わりのセラフ","cn_anime":"终结的炽天使","color":"#5b5bdb","ep":0,"s":0,"image":"https://image.anitabi.cn/user/0/bangumi/112151/points/tkvpujgso-1741591981589.jpg?plan=h360"},"geometry":{"type":"Point","coordinates":[138.732424,35.362063]}},{"type":"Feature","properties":{"pid":"lxfpmrsq4","name":"朱倉岳","cn":0,"aid":1127,"ja":"Remember11 -the age of infinity-","cn_anime":"Remember11：无限轮回的时光","color":"#828282","ep":0,"s":0,"image":"https://image.anitabi.cn/points/1127/lxfpmrsq4_1720007697001.jpg?plan=h360"},"geometry":{"type":"Point","coordinates":[140.886059,40.668418]}},{"type":"Feature","properties":{"pid":"sa0iqg81f","name":"立教大学","cn":0,"aid":1130,"ja":"殻ノ少女","cn_anime":"壳之少女","color":"#756885","ep":0,"s":0,"image":"https://image.anitabi.cn/points/1130/sa0iqg81f_1737919133742.jpg?plan=h360"},"geometry":{"type":"Point","coordinates":[139.703928,35.730906]}},{"type":"Feature","properties":{"pid":"kqkgq8quv","name":"テレコム​センター","cn":"电信中心内部","aid":11304,"ja":"ウルトラマンティガ","cn_anime":"迪迦奥特曼","color":"#990069","ep":0,"s":0,"image":"https://image.anitabi.cn/user/0/bangumi/11304/points/kqkgq8quv-1716647665607.jpg?plan=h360"},"geometry":{"type":"Point","coordinates":[139.780118,35.617309]}},{"type":"Feature","properties":{"pid":"m12r4xelh","name":"Bugis+ Entrance","cn":"武吉士+ 购物中心入口","aid":114685,"ja":"プラスティック・メモリーズ","cn_anime":"可塑性记忆","color":"#77c3ee","ep":0,"s":0,"image":"https://image.anitabi.cn/user/0/bangumi/114685/points/m12r4xelh-1720292276233.jpg?plan=h360"},"geometry":{"type":"Point","coordinates":[103.854615,1.299608]}},{"type":"Feature","properties":{"pid":"ofpre75so","name":"圓山大飯店","cn":0,"aid":1148,"ja":"東方永夜抄　～ Imperishable Night.","cn_anime":"东方永夜抄 ～ Imperishable Night.","color":"#5b5bdb","ep":0,"s":0,"image":"https://image.anitabi.cn/user/0/bangumi/1148/points/ofpre75so-1727081423169.jpg?plan=h360"},"geometry":{"type":"Point","coordinates":[121.526152,25.078697]}},{"type":"Feature","properties":{"pid":"q018vcaf8","name":"喫茶アンデス","cn":0,"aid":115292,"ja":"東京喰種トーキョーグール √A","cn_anime":"东京喰种√A","color":"#5b5bdb","ep":0,"s":0,"image":"https://image.anitabi.cn/user/1099/bangumi/115292/points/q018vcaf8-1731494909088.jpg?plan=h360"},"geometry":{"type":"Point","coordinates":[139.654754,35.737295]}},{"type":"Feature","properties":{"pid":"o1fcnz6fe","name":"浦和駅付近交差点","cn":0,"aid":115339,"ja":"浦和の調ちゃん","cn_anime":"浦和小调","color":"#556aaa","ep":0,"s":0,"image":"https://image.anitabi.cn/user/1751/bangumi/115339/points/o1fcnz6fe-1725961979829.jpg?plan=h360"},"geometry":{"type":"Point","coordinates":[139.654484,35.859976]}},{"type":"Feature","properties":{"pid":"sd21f0jsg","name":"Repubblica di San Marino","cn":"圣马力诺共和国","aid":115661,"ja":"ルパン三世 PART IV","cn_anime":"鲁邦三世 意大利的冒险","color":"#5b5bdb","ep":0,"s":0,"image":"https://image.anitabi.cn/user/0/bangumi/115661/points/sd21f0jsg-1738157527218.jpg?plan=h360"},"geometry":{"type":"Point","coordinates":[12.446604,43.936496]}},{"type":"Feature","properties":{"pid":"5ef29a47","name":"佐野市立南中学校","cn":0,"aid":115732,"ja":"花とアリス 殺人事件","cn_anime":"花与爱丽丝杀人事件","color":"#ed7f68","ep":0,"s":"1Q3ps6sDCCx6JMANGj2RZIfK7OWhvhvA","image":"https://image.anitabi.cn/points/115732/5ef29a47_1716732383138.jpg?plan=h360"},"geometry":{"type":"Point","coordinates":[139.582186,36.299776]}},{"type":"Feature","properties":{"pid":"a857o82c","name":"吾妻山公園 第２展望台","cn":0,"aid":11577,"ja":"THE iDOLM@STER","cn_anime":"偶像大师","color":"#ff74b8","ep":0,"s":"16wFstaizPTmlp-FPhKkPGH8yFbs","image":"https://image.anitabi.cn/user/0/bangumi/11577/points/a857o82c-1741591109448.jpg?plan=h360"},"geometry":{"type":"Point","coordinates":[139.254174,35.299392]}},{"type":"Feature","properties":{"pid":"qys7fu","name":"京都コンサートホール","cn":"京都音乐厅","aid":115908,"ja":"響け！ユーフォニアム","cn_anime":"吹响吧！上低音号","color":"#02a7bd","ep":1,"s":"13mgdlajJV0HxpqKf6ri2NnEHFBc","image":"https://image.anitabi.cn/points/115908/qys7fu.jpg?plan=h360"},"geometry":{"type":"Point","coordinates":[135.766468,35.05038]}},{"type":"Feature","properties":{"pid":"ks4wpgqzr","name":"Salto Ángel","cn":"安赫尔瀑布","aid":11602,"ja":"UP","cn_anime":"飞屋环游记","color":"#80aad4","ep":0,"s":0,"image":"https://image.anitabi.cn/user/1000/bangumi/11602/points/ks4wpgqzr-1716770360230.jpg?plan=h360"},"geometry":{"type":"Point","coordinates":[-62.536715,5.968914]}},{"type":"Feature","properties":{"pid":"51i52d76l","name":"【品川駅 中央改札】","cn":0,"aid":116461,"ja":"食戟のソーマ","cn_anime":"食戟之灵","color":"#dc5e6f","ep":0,"s":"1BHXXGWl5jhbMb420TOWFLG31tO8","image":"https://image.anitabi.cn/points/116461/51i52d76l_1672371600995.jpg?plan=h360"},"geometry":{"type":"Point","coordinates":[139.738777,35.628846]}},{"type":"Feature","properties":{"pid":"8334mxbbe","name":"灘黒岩水仙郷","cn":"滩黑岩水仙乡","aid":1167,"ja":"narcissu","cn_anime":"水仙","color":"#e3aa71","ep":0,"s":0,"image":"https://image.anitabi.cn/user/0/bangumi/1167/points/8334mxbbe-1680954747236.jpg?plan=h360"},"geometry":{"type":"Point","coordinates":[134.835605,34.225524]}},{"type":"Feature","properties":{"pid":"oqqu58c02","name":"هگمتانه‎","cn":"埃克巴坦那","aid":116871,"ja":"アルスラーン戦記","cn_anime":"亚尔斯兰战记","color":"#5b5bdb","ep":0,"s":0,"image":"https://image.anitabi.cn/user/0/bangumi/116871/points/oqqu58c02-1727946660481.jpg?plan=h360"},"geometry":{"type":"Point","coordinates":[48.518345,34.803521]}},{"type":"Feature","properties":{"pid":"p7r03gjwo","name":"神津岛","cn":"神津岛","aid":1174,"ja":"この青空に約束を―","cn_anime":"青空下的约定","color":"#5b5bdb","ep":0,"s":0,"image":"https://image.anitabi.cn/points/1174/p7r03gjwo_1729278327840.jpg?plan=h360"},"geometry":{"type":"Point","coordinates":[139.148133,34.214838]}},{"type":"Feature","properties":{"pid":"mmwv4bkfq","name":"カトリック​浜脇​教会","cn":0,"aid":117601,"ja":"蒼の彼方のフォーリズム","cn_anime":"苍之彼方的四重奏","color":"#1a3177","ep":0,"s":0,"image":"https://image.anitabi.cn/points/117601/mmwv4bkfq_1722003227311.jpg?plan=h360"},"geometry":{"type":"Point","coordinates":[128.851199,32.779103]}},{"type":"Feature","properties":{"pid":"5c3zjlepj","name":"硝子の通う福祉会館","cn":0,"aid":117777,"ja":"映画 聲の形","cn_anime":"声之形","color":"#63cdf1","ep":0,"s":"1P1V19ZlCs7hT2Y3mViCyrCJlxOY","image":"https://image.anitabi.cn/points/117777/5c3zjlepj_1677317119552.jpg?plan=h360"},"geometry":{"type":"Point","coordinates":[136.612281,35.357427]}},{"type":"Feature","properties":{"pid":"kpx6ogomw","name":"横瀬駅のホーム","cn":0,"aid":119344,"ja":"心が叫びたがってるんだ。","cn_anime":"心灵想要大声呼喊。","color":"#4db837","ep":0,"s":0,"image":"https://image.anitabi.cn/user/0/bangumi/119344/points/kpx6ogomw-1719732977163.jpg?plan=h360"},"geometry":{"type":"Point","coordinates":[139.097884,35.985182]}},{"type":"Feature","properties":{"pid":"bf3c76ad","name":"阿波池田駅","cn":0,"aid":119394,"ja":"昭和元禄落語心中","cn_anime":"昭和元禄落语心中","color":"#d7b693","ep":0,"s":"1aMLXwdid43oWAv91NQ1VoN1jYNt9N40","image":"https://image.anitabi.cn/points/119394/bf3c76ad_1716653460870.jpg?plan=h360"},"geometry":{"type":"Point","coordinates":[133.804685,34.027127]}},{"type":"Feature","properties":{"pid":"pjfswn1rp","name":"1.1日本棋院会館","cn":0,"aid":1195,"ja":"ヒカルの碁","cn_anime":"棋魂","color":"#d5d5d5","ep":0,"s":0,"image":"https://image.anitabi.cn/points/1195/pjfswn1rp_1730194306802.jpg?plan=h360"},"geometry":{"type":"Point","coordinates":[139.736502,35.690463]}},{"type":"Feature","properties":{"pid":"51i53hvvl","name":"釧路仏舎利","cn":0,"aid":119889,"ja":"おくさまが生徒会長!","cn_anime":"我老婆是学生会长","color":"#962eff","ep":0,"s":"1wJewT8Sf6WexN33BabPV65a6TgM","image":"https://image.anitabi.cn/points/119889/51i53hvvl_1730614715350.jpg?plan=h360"},"geometry":{"type":"Point","coordinates":[144.398202,42.983797]}},{"type":"Feature","properties":{"pid":"oblu98183","name":"幾寅駅ホーム","cn":"幾寅駅站台","aid":119967,"ja":"鉄道員","cn_anime":"铁道员","color":"#642b21","ep":0,"s":0,"image":"https://image.anitabi.cn/points/119967/oblu98183_1726806397432_cblack.jpg?plan=h360"},"geometry":{"type":"Point","coordinates":[142.569646,43.161634]}},{"type":"Feature","properties":{"pid":"5e9f8fge7","name":"青銅の鳥居 付近","cn":0,"aid":120187,"ja":"干物妹! うまるちゃん","cn_anime":"干物妹！小埋","color":"#f18763","ep":0,"s":"19cnj5FiO6bFUWnXIlqYw0ssDAGM","image":"https://image.anitabi.cn/points/120187/5e9f8fge7_1673366568620.jpg?plan=h360"},"geometry":{"type":"Point","coordinates":[139.481081,35.302115]}},{"type":"Feature","properties":{"pid":"nrf7kyepg","name":"Piazza San Pietro","cn":"圣伯多禄大殿","aid":120369,"ja":"ヘタリア The World Twinkle","cn_anime":"黑塔利亚 第6期","color":"#5b5bdb","ep":0,"s":0,"image":"https://image.anitabi.cn/user/0/bangumi/120369/points/nrf7kyepg-1725177843569.jpg?plan=h360"},"geometry":{"type":"Point","coordinates":[12.457276,41.90217]}},{"type":"Feature","properties":{"pid":"pzqekiw4i","name":"東京駅（丸の内駅舎）","cn":"東京站","aid":120445,"ja":"GATE 自衛隊 彼の地にて、斯く戦えり","cn_anime":"GATE 奇幻自卫队","color":"#67260a","ep":0,"s":0,"image":"https://image.anitabi.cn/user/0/bangumi/120445/points/pzqekiw4i-1731471237612.jpg?plan=h360"},"geometry":{"type":"Point","coordinates":[139.764233,35.681752]}},{"type":"Feature","properties":{"pid":"lpjz8mpb7","name":"渋谷駅前","cn":"涩谷站前","aid":120925,"ja":"Charlotte","cn_anime":"夏洛特","color":"#07194e","ep":1,"s":0,"image":"https://image.anitabi.cn/user/1118/bangumi/120925/points/lpjz8mpb7-1719389159147.jpg?plan=h360"},"geometry":{"type":"Point","coordinates":[139.700552,35.659355]}},{"type":"Feature","properties":{"pid":"u7furi9ne","name":"鬼無駅","cn":0,"aid":121377,"ja":"それが声優！","cn_anime":"那就是声优！","color":"#9c89ae","ep":0,"s":0,"image":"https://image.anitabi.cn/user/1000/bangumi/121377/points/u7furi9ne-1743359624283.jpg?plan=h360"},"geometry":{"type":"Point","coordinates":[133.993856,34.325485]}},{"type":"Feature","properties":{"pid":"ssg478vur","name":"天津科技大学","cn":0,"aid":121597,"ja":"铠甲勇士刑天","cn_anime":null,"color":"#c31b21","ep":0,"s":0,"image":"https://image.anitabi.cn/user/0/bangumi/121597/points/ssg478vur-1739364016249.jpg?plan=h360"},"geometry":{"type":"Point","coordinates":[117.702947,39.084098]}},{"type":"Feature","properties":{"pid":"pc4j3mfds","name":"相克寺","cn":"相克寺","aid":12192,"ja":"ぬらりひょんの孫～千年魔京～","cn_anime":"滑头鬼之孙～千年魔京～","color":"#8b0200","ep":0,"s":0,"image":"https://image.anitabi.cn/user/0/bangumi/12192/points/pc4j3mfds-1729621379629.jpg?plan=h360"},"geometry":{"type":"Point","coordinates":[135.762158,35.032997]}},{"type":"Feature","properties":{"pid":"s7bdyv8ic","name":"普拉兰岛","cn":"塞舌尔","aid":122847,"ja":"World of Warships","cn_anime":"战舰世界","color":"#5b5bdb","ep":0,"s":0,"image":"https://image.anitabi.cn/user/0/bangumi/122847/points/s7bdyv8ic-1737708454266.jpg?plan=h360"},"geometry":{"type":"Point","coordinates":[55.790328,-4.341433]}},{"type":"Feature","properties":{"pid":"m1w3asces","name":"广宁寺","cn":"广宁寺","aid":123149,"ja":"甄嬛传","cn_anime":null,"color":"#ea8015","ep":0,"s":0,"image":"https://image.anitabi.cn/points/123149/m1w3asces_1720355897471.jpg?plan=h360"},"geometry":{"type":"Point","coordinates":[120.299894,29.175446]}},{"type":"Feature","properties":{"pid":"p9xy9yztq","name":"上海沙龙","cn":"上海沙龙","aid":123222,"ja":"魔幻手机","cn_anime":null,"color":"#5b5bdb","ep":0,"s":0,"image":"https://image.anitabi.cn/user/0/bangumi/123222/points/p9xy9yztq-1729450626884.jpg?plan=h360"},"geometry":{"type":"Point","coordinates":[116.492223,39.790327]}},{"type":"Feature","properties":{"pid":"pj7ac411h","name":"悬空寺","cn":0,"aid":123281,"ja":"西游记之大圣归来","cn_anime":null,"color":"#5b5bdb","ep":0,"s":0,"image":"https://image.anitabi.cn/user/0/bangumi/123281/points/pj7ac411h-1730175794928.jpg?plan=h360"},"geometry":{"type":"Point","coordinates":[113.708365,39.659557]}},{"type":"Feature","properties":{"pid":"51i53yiqv","name":"新川戸橋","cn":0,"aid":12333,"ja":"神様ドォルズ","cn_anime":"神样DOLLS","color":"#575676","ep":0,"s":"zHgrmM7GQmnE.kXRGtHAumcmo","image":"https://image.anitabi.cn/points/12333/51i53yiqv_1744729718087.jpg?plan=h360"},"geometry":{"type":"Point","coordinates":[140.497981,36.511969]}},{"type":"Feature","properties":{"pid":"fui97a3ex","name":" Vivienne Westwood Worlds End","cn":0,"aid":12426,"ja":"映画けいおん！","cn_anime":"轻音少女 剧场版","color":"#2a4080","ep":0,"s":0,"image":"https://image.anitabi.cn/user/0/bangumi/12426/points/fui97a3ex-1702850565504.jpg?plan=h360"},"geometry":{"type":"Point","coordinates":[-0.177475,51.483218]}},{"type":"Feature","properties":{"pid":"szboig5in","name":"上色見熊野神社","cn":0,"aid":12544,"ja":"蛍火の杜へ","cn_anime":"萤火之森","color":"#80956a","ep":1,"s":0,"image":"https://image.anitabi.cn/points/12544/szboig5in_1739902489504.jpg?plan=h360"},"geometry":{"type":"Point","coordinates":[131.158536,32.853893]}},{"type":"Feature","properties":{"pid":"u3zqjxjfp","name":"恐山","cn":0,"aid":1260,"ja":"地獄少女","cn_anime":"地狱少女","color":"#5b5bdb","ep":0,"s":0,"image":"https://image.anitabi.cn/user/0/bangumi/1260/points/u3zqjxjfp-1743089433877.jpg?plan=h360"},"geometry":{"type":"Point","coordinates":[141.085687,41.308885]}},{"type":"Feature","properties":{"pid":"51i52zi9l","name":"大分県立大分上野丘高等学校","cn":0,"aid":126173,"ja":"ReLIFE","cn_anime":null,"color":"#c6dce3","ep":0,"s":"18kqtPIvjBs9B4fFc_i2BoXpzTYg","image":"https://image.anitabi.cn/user/0/bangumi/126173/points/51i52zi9l-1713444997746.jpg?plan=h360"},"geometry":{"type":"Point","coordinates":[131.611643,33.222167]}},{"type":"Feature","properties":{"pid":"5qypywi9","name":"第二箸別バス停前（箸別駅西側）","cn":0,"aid":126461,"ja":"櫻子さんの足下には死体が埋まっている","cn_anime":"樱子小姐的脚下埋着尸体","color":"#b03faf","ep":0,"s":"1hkF1issn0oVQDeN4BIrBPp5b5Ek","image":"https://image.anitabi.cn/points/126461/5qypywi9.jpg?plan=h360"},"geometry":{"type":"Point","coordinates":[141.546264,43.857864]}},{"type":"Feature","properties":{"pid":"p7fspnquy","name":"Midway Atoll","cn":"中途岛亨德森机场","aid":126606,"ja":"第三飛行少女隊","cn_anime":"第三飞行少女队","color":"#5b5bdb","ep":0,"s":0,"image":"https://image.anitabi.cn/user/0/bangumi/126606/points/p7fspnquy-1729254275101.jpg?plan=h360"},"geometry":{"type":"Point","coordinates":[-177.373411,28.208534]}},{"type":"Feature","properties":{"pid":"ofpeg68tl","name":"霞海城隍廟","cn":0,"aid":12696,"ja":"東方神霊廟　～ Ten Desires","cn_anime":"东方神灵庙 ～ Ten Desires.","color":"#5b5bdb","ep":0,"s":0,"image":"https://image.anitabi.cn/user/0/bangumi/12696/points/ofpeg68tl-1727080661744.jpg?plan=h360"},"geometry":{"type":"Point","coordinates":[121.510221,25.055602]}},{"type":"Feature","properties":{"pid":"lk2wt2aze","name":"沖之島歩道橋","cn":0,"aid":12703,"ja":"境界線上のホライゾン","cn_anime":"境界线上的地平线","color":"#5b5bdb","ep":0,"s":0,"image":"https://image.anitabi.cn/points/12703/lk2wt2aze_1718960474491.jpg?plan=h360"},"geometry":{"type":"Point","coordinates":[136.806796,35.184195]}},{"type":"Feature","properties":{"pid":"rfv2plmd5","name":"釧路​フィッシャーマンズワーフ​MOO","cn":"釧路漁人碼頭MOO","aid":1275,"ja":"僕等がいた","cn_anime":"我们的存在","color":"#5b5bdb","ep":0,"s":0,"image":"https://image.anitabi.cn/user/0/bangumi/1275/points/rfv2plmd5-1735556407483.jpg?plan=h360"},"geometry":{"type":"Point","coordinates":[144.383398,42.98176]}},{"type":"Feature","properties":{"pid":"r0mo6axds","name":"仙台​空港​旅客​ターミナルビル","cn":0,"aid":128801,"ja":"Wake Up, Girls! Beyond the Bottom","cn_anime":"Wake Up, Girls! 超越深限","color":"#5b5bdb","ep":0,"s":0,"image":"https://image.anitabi.cn/user/0/bangumi/128801/points/r0mo6axds-1734362779823.jpg?plan=h360"},"geometry":{"type":"Point","coordinates":[140.930193,38.138106]}},{"type":"Feature","properties":{"pid":"a2625806","name":"Love Letter はじまり","cn":0,"aid":12886,"ja":"ラヴレター","cn_anime":"情书","color":"#270c0c","ep":0,"s":"1zv3z7n_V-PmJ96Gu6l1V3wtEYfoXjs4","image":"https://image.anitabi.cn/points/12886/a2625806_1729778153339.jpg?plan=h360"},"geometry":{"type":"Point","coordinates":[140.973081,43.179106]}},{"type":"Feature","properties":{"pid":"u0uhb6oez","name":"和光市駅南口","cn":0,"aid":129807,"ja":"シュタインズ・ゲート ゼロ","cn_anime":"命运石之门 0","color":"#000000","ep":0,"s":0,"image":"https://image.anitabi.cn/points/129807/u0uhb6oez_1742842917866.jpg?plan=h360"},"geometry":{"type":"Point","coordinates":[139.61214,35.788236]}},{"type":"Feature","properties":{"pid":"k2ck3hlcl","name":"大沼国定公園 公園広場","cn":"大沼国定公园","aid":12981,"ja":"鬼ごっこ！","cn_anime":"鬼的捉迷藏！","color":"#ca5d40","ep":0,"s":0,"image":"https://image.anitabi.cn/user/1073/bangumi/12981/points/k2ck3hlcl-1714749572171.jpg?plan=h360"},"geometry":{"type":"Point","coordinates":[140.672303,41.98394]}},{"type":"Feature","properties":{"pid":"ngvhcvmiq","name":"神宮球場","cn":"神宫球场","aid":129844,"ja":"ダイヤのA -SECOND SEASON-","cn_anime":"钻石王牌 第二季","color":"#5b5bdb","ep":0,"s":0,"image":"https://image.anitabi.cn/user/0/bangumi/73083/points/ngvhcvmiq-1724351188458.jpg?plan=h360"},"geometry":{"type":"Point","coordinates":[139.717383,35.674414]}},{"type":"Feature","properties":{"pid":"potcrrikr","name":"ドライブイン​ゆう​ら​っ​ぷ","cn":0,"aid":130234,"ja":"グリザイアの楽園","cn_anime":"灰色的乐园","color":"#5b5bdb","ep":0,"s":0,"image":"https://image.anitabi.cn/points/130234/potcrrikr_1730615656636.jpg?plan=h360"},"geometry":{"type":"Point","coordinates":[140.271726,42.288765]}},{"type":"Feature","properties":{"pid":"pnpte4ftp","name":"レインボー​ブリッジ","cn":"彩虹桥","aid":131427,"ja":"名探偵コナン 純黒の悪夢","cn_anime":"名侦探柯南 纯黑的恶梦","color":"#5b5bdb","ep":0,"s":0,"image":"https://image.anitabi.cn/user/0/bangumi/131427/points/pnpte4ftp-1730529704510.jpg?plan=h360"},"geometry":{"type":"Point","coordinates":[139.761965,35.637101]}},{"type":"Feature","properties":{"pid":"51i53g0tx","name":"ａｕショップ つきみ野","cn":0,"aid":131800,"ja":"ろんぐらいだぁす！","cn_anime":"长骑美眉","color":"#d4bf80","ep":0,"s":"1fWVlM9AZxCs74cCorPFHB3KZdTc","image":"https://image.anitabi.cn/points/131800/51i53g0tx_1672370757687.jpg?plan=h360"},"geometry":{"type":"Point","coordinates":[139.460616,35.510007]}},{"type":"Feature","properties":{"pid":"o1mp1mx4p","name":"みかどパン脇のヒマラヤ杉の前","cn":0,"aid":131891,"ja":"暗殺教室 第2期","cn_anime":"暗杀教室 第二季","color":"#faff5c","ep":0,"s":0,"image":"https://image.anitabi.cn/user/1751/bangumi/131891/points/o1mp1mx4p-1725977720676.jpg?plan=h360"},"geometry":{"type":"Point","coordinates":[139.767402,35.721509]}},{"type":"Feature","properties":{"pid":"rcm688ws9","name":"蘭島駅","cn":"蘭島車站","aid":13238,"ja":"NANA","cn_anime":"娜娜","color":"#5b5bdb","ep":0,"s":0,"image":"https://image.anitabi.cn/user/0/bangumi/13238/points/rcm688ws9-1735302590877.jpg?plan=h360"},"geometry":{"type":"Point","coordinates":[140.854804,43.19659]}},{"type":"Feature","properties":{"pid":"nbpu13t8k","name":"須磨海浜水族園","cn":"神戸市立須磨海浜水族園","aid":132528,"ja":"恋×シンアイ彼女","cn_anime":"想要传达给你的爱恋","color":"#556aaa","ep":0,"s":0,"image":"https://image.anitabi.cn/user/0/bangumi/132528/points/nbpu13t8k-1723947065480.jpg?plan=h360"},"geometry":{"type":"Point","coordinates":[135.127966,34.643907]}},{"type":"Feature","properties":{"pid":"oii990gqp","name":"台場駅","cn":"台场站","aid":132734,"ja":"冴えない彼女の育てかた ♭","cn_anime":"路人女主的养成方法 ♭","color":"#463937","ep":0,"s":0,"image":"https://image.anitabi.cn/user/0/bangumi/100403/points/4yuvsuwlv.jpg?plan=h360"},"geometry":{"type":"Point","coordinates":[139.771793,35.6263]}},{"type":"Feature","properties":{"pid":"51qlsl0x1","name":"金鐘 Admiralty","cn":"金钟","aid":133383,"ja":"Ghost in the Shell","cn_anime":"攻壳机动队","color":"#1236c4","ep":0,"s":0,"image":"https://image.anitabi.cn/points/133383/51qlsl0x1_1672385067628.jpg?plan=h360"},"geometry":{"type":"Point","coordinates":[114.166709,22.278073]}},{"type":"Feature","properties":{"pid":"kpx6oh4zf","name":"松戸駅西口付近１","cn":0,"aid":13485,"ja":"ロウきゅーぶ！","cn_anime":"萝球社！","color":"#c69c8e","ep":0,"s":"1AE9-U5DRO64CqxDAE05XhxR-EVY","image":"https://image.anitabi.cn/points/13485/kpx6oh4zf_1742557021254.jpg?plan=h360"},"geometry":{"type":"Point","coordinates":[139.899959,35.784405]}},{"type":"Feature","properties":{"pid":"51i52qtdi","name":"2話　学校前の風景","cn":0,"aid":136213,"ja":"ハルチカ～ハルタとチカは青春する～","cn_anime":"春&夏推理事件簿～春太与千夏的青春～","color":"#71637a","ep":0,"s":"z3SDk23v_BE8.kfzdK-5y9Msg","image":"https://image.anitabi.cn/points/136213/51i52qtdi_1672367821351.jpg?plan=h360"},"geometry":{"type":"Point","coordinates":[138.529861,35.010702]}},{"type":"Feature","properties":{"pid":"skll0ze8x","name":"Eiserner Steg","cn":"铁桥","aid":136802,"ja":"少女前线","cn_anime":"少女前线","color":"#c68e8e","ep":0,"s":0,"image":"https://image.anitabi.cn/user/0/bangumi/136802/points/skll0ze8x-1738748753256.jpg?plan=h360"},"geometry":{"type":"Point","coordinates":[8.682156,50.108063]}},{"type":"Feature","properties":{"pid":"4sjkx3bnn","name":"東京薬科大学","cn":0,"aid":1369,"ja":"ハチミツとクローバー","cn_anime":"蜂蜜与四叶草","color":"#5b5bdb","ep":0,"s":0,"image":"https://image.anitabi.cn/points/847/4sjkx3bnn.jpg?plan=h360"},"geometry":{"type":"Point","coordinates":[139.38405,35.638289]}},{"type":"Feature","properties":{"pid":"kq8r3sohv","name":"旧古河庭園","cn":0,"aid":1377,"ja":"うみねこのなく頃に","cn_anime":"海猫鸣泣之时","color":"#9c5707","ep":0,"s":0,"image":"https://image.anitabi.cn/user/0/bangumi/1377/points/kq8r3sohv-1725435380490.jpg?plan=h360"},"geometry":{"type":"Point","coordinates":[139.746399,35.742692]}},{"type":"Feature","properties":{"pid":"v4swh2","name":"苫小牧市立美園小学校","cn":0,"aid":137722,"ja":"僕だけがいない街","cn_anime":"只有我不存在的城市","color":"#634e47","ep":0,"s":"1nw5vCUbi_QNrUQkJ5fLmGWU2D8w","image":"https://image.anitabi.cn/points/137722/v4swh2.jpg?plan=h360"},"geometry":{"type":"Point","coordinates":[141.614494,42.663097]}},{"type":"Feature","properties":{"pid":"r9c1ktleb","name":"L'Arc de Triomphe","cn":"凯旋门","aid":137941,"ja":"ウルトラマンX","cn_anime":"艾克斯奥特曼","color":"#5b5bdb","ep":0,"s":0,"image":"https://image.anitabi.cn/user/0/bangumi/137941/points/r9c1ktleb-1735044786108.jpg?plan=h360"},"geometry":{"type":"Point","coordinates":[2.294846,48.873889]}},{"type":"Feature","properties":{"pid":"uyytqb0u1","name":"東京都新宿区西早稲田3丁目","cn":0,"aid":13812,"ja":"ひとつ屋根の下","cn_anime":"同一屋檐下","color":"#5b5bdb","ep":0,"s":0,"image":"https://image.anitabi.cn/user/0/bangumi/13812/points/uyytqb0u1-1745516965257.jpg?plan=h360"},"geometry":{"type":"Point","coordinates":[139.711273,35.712194]}},{"type":"Feature","properties":{"pid":"51i52mivm","name":"湯本橋","cn":0,"aid":138960,"ja":"温泉幼精ハコネちゃん","cn_anime":"温泉幼精箱根酱","color":"#d3382b","ep":0,"s":"zPWmE--Z--YU.k1q5CZsYcy4k","image":"https://image.anitabi.cn/user/0/bangumi/138960/points/51i52mivm-1731939535208.jpg?plan=h360"},"geometry":{"type":"Point","coordinates":[139.100389,35.231355]}},{"type":"Feature","properties":{"pid":"n7w30c4fm","name":"明治通りの高千穂化学工業の前","cn":0,"aid":139221,"ja":"Dimension W","cn_anime":"~Dimension W~ 维度战记","color":"#b5ea15","ep":0,"s":0,"image":"https://image.anitabi.cn/user/1181/bangumi/139221/points/n7w30c4fm-1723647187633.jpg?plan=h360"},"geometry":{"type":"Point","coordinates":[139.71349,35.648434]}},{"type":"Feature","properties":{"pid":"d595cd30","name":"东京国际空港","cn":"东京国际空港","aid":13938,"ja":"東京ラブストーリー","cn_anime":"东京爱情故事","color":"#5b5bdb","ep":0,"s":"10m3ADKE3oXVna1ix2MzNg5UUJoG2O10","image":"https://image.anitabi.cn/points/13938/d595cd30_1730816133773.jpg?plan=h360"},"geometry":{"type":"Point","coordinates":[139.789006,35.551168]}},{"type":"Feature","properties":{"pid":"6b5e6bbd","name":"ミニストップあすみが丘東店","cn":0,"aid":140001,"ja":"Re:ゼロから始める異世界生活","cn_anime":"Re:从零开始的异世界生活","color":"#7b6bad","ep":0,"s":"1QmgkDXJJ_Wsdbc7iE23_nSvDGXQ","image":"https://image.anitabi.cn/points/140001/6b5e6bbd_1725956935068.jpg?plan=h360"},"geometry":{"type":"Point","coordinates":[140.273242,35.526898]}},{"type":"Feature","properties":{"pid":"r94yarpwn","name":"外滩","cn":0,"aid":141013,"ja":"劇場版 ウルトラマンX きたぞ!われらのウルトラマン","cn_anime":"剧场版 艾克斯奥特曼 来了！我们的奥特曼","color":"#5b5bdb","ep":0,"s":0,"image":"https://image.anitabi.cn/user/0/bangumi/141013/points/r94yarpwn-1735029279915.jpg?plan=h360"},"geometry":{"type":"Point","coordinates":[121.48632,31.238624]}},{"type":"Feature","properties":{"pid":"3ia3gyg7","name":"巌鬼山神社","cn":0,"aid":141799,"ja":"ふらいんぐうぃっち","cn_anime":"飞翔的魔女","color":"#aa8055","ep":0,"s":"1cubn1k_osXQuJ558TXC7kVM93WQ","image":"https://image.anitabi.cn/points/141799/3ia3gyg7.jpg?plan=h360"},"geometry":{"type":"Point","coordinates":[140.334377,40.730739]}},{"type":"Feature","properties":{"pid":"s9mdb1bik","name":"豊郷小学校3F","cn":0,"aid":1424,"ja":"けいおん！","cn_anime":"轻音少女","color":"#e6302c","ep":0,"s":0,"image":"https://image.anitabi.cn/points/1424/s9mdb1bik_1737888286009.jpg?plan=h360"},"geometry":{"type":"Point","coordinates":[136.232961,35.203346]}},{"type":"Feature","properties":{"pid":"51i52tq8d","name":"松戸市立松戸高等学校","cn":0,"aid":142758,"ja":"ネトゲの嫁は女の子じゃないと思った?","cn_anime":"线上游戏的老婆不可能是女生？","color":"#f5b8b7","ep":0,"s":"1qrtEgAugkQToEGlJBOHQDIZ6Lwo","image":"https://image.anitabi.cn/user/0/bangumi/142758/points/51i52tq8d-1746097452132.jpg?plan=h360"},"geometry":{"type":"Point","coordinates":[139.950762,35.776445]}},{"type":"Feature","properties":{"pid":"sz13wzn0j","name":"旧相互無尽会社本社","cn":"旧相互无尽会社本社","aid":142812,"ja":"ジョーカー・ゲーム","cn_anime":"鬼牌游戏","color":"#c12c24","ep":0,"s":0,"image":"https://image.anitabi.cn/points/142812/sz13wzn0j_1739879629569.jpg?plan=h360"},"geometry":{"type":"Point","coordinates":[139.75715,35.695283]}},{"type":"Feature","properties":{"pid":"a87b861d","name":"炭火焼肉寿苑","cn":0,"aid":143120,"ja":"孤独のグルメ Season5","cn_anime":"孤独的美食家 第五季","color":"#5b5bdb","ep":0,"s":"1FMCvOSxBcxz2OvN_o9CyO2awvsmB5FQ","image":"https://image.anitabi.cn/points/143120/a87b861d_1741501490139.jpg?plan=h360"},"geometry":{"type":"Point","coordinates":[139.535227,35.632628]}},{"type":"Feature","properties":{"pid":"ihpvl1op8","name":"青井阿苏神社","cn":"青井阿苏神社","aid":143128,"ja":"まいてつ","cn_anime":"爱上火车","color":"#930910","ep":0,"s":0,"image":"https://image.anitabi.cn/user/1053/bangumi/143128/points/ihpvl1op8-1710311898379.jpg?plan=h360"},"geometry":{"type":"Point","coordinates":[130.753103,32.212935]}},{"type":"Feature","properties":{"pid":"24ty83l4","name":"江ノ島弁天橋","cn":0,"aid":143205,"ja":"南鎌倉高校女子自転車部","cn_anime":"南镰仓高校女子自行车社","color":"#ed5c95","ep":0,"s":"1Usadnvvs8giq3daO_NjMV5A_Zb0","image":"https://image.anitabi.cn/points/143205/24ty83l4_1716985933127.jpg?plan=h360"},"geometry":{"type":"Point","coordinates":[139.482347,35.304834]}},{"type":"Feature","properties":{"pid":"iv7k61i7x","name":"石川​四高​記念​文化​交流​館","cn":0,"aid":143834,"ja":"オトメ＊ドメイン","cn_anime":"少女＊领域","color":"#b89cb1","ep":0,"s":0,"image":"https://image.anitabi.cn/user/1053/bangumi/143834/points/iv7k61i7x-1711369117657.jpg?plan=h360"},"geometry":{"type":"Point","coordinates":[136.655804,36.562348]}},{"type":"Feature","properties":{"pid":"rjuwh3ii2","name":"山の湯","cn":0,"aid":14435,"ja":"いろとりどりのセカイ","cn_anime":"五彩斑斓的世界","color":"#5b5bdb","ep":0,"s":0,"image":"https://image.anitabi.cn/user/0/bangumi/14435/points/rjuwh3ii2-1735871254687.jpg?plan=h360"},"geometry":{"type":"Point","coordinates":[136.253403,35.267976]}},{"type":"Feature","properties":{"pid":"55emti6ur","name":"横浜​赤​レンガ​倉庫​2号館","cn":"横滨红砖仓库2号馆","aid":144357,"ja":"文豪ストレイドッグス","cn_anime":"文豪野犬","color":"#d4bf80","ep":0,"s":0,"image":"https://image.anitabi.cn/user/0/bangumi/144357/points/55emti6ur-1726460339606.jpg?plan=h360"},"geometry":{"type":"Point","coordinates":[139.64286,35.452616]}},{"type":"Feature","properties":{"pid":"lro4afhiu","name":"北海道庁旧本庁舎","cn":0,"aid":1444,"ja":"咲-Saki-","cn_anime":"天才麻将少女","color":"#634e47","ep":0,"s":0,"image":"https://image.anitabi.cn/user/1073/bangumi/1444/points/lro4afhiu-1719554894801.jpg?plan=h360"},"geometry":{"type":"Point","coordinates":[141.348656,43.064039]}},{"type":"Feature","properties":{"pid":"bbb1c84e","name":"1旭川樱花路1","cn":0,"aid":144719,"ja":"推しが武道館いってくれたら死ぬ","cn_anime":"神推登上武道馆我就死而无憾","color":"#5d250e","ep":0,"s":"1FndsnwDVK5aQkY8Wu9OdpokY5uCSC6p7","image":"https://image.anitabi.cn/points/144719/bbb1c84e_1725031985422.jpg?plan=h360"},"geometry":{"type":"Point","coordinates":[133.939301,34.66301]}},{"type":"Feature","properties":{"pid":"51i52vhk2","name":"海上自衛隊第1術科学校","cn":"海上自卫队第1术科学校","aid":144843,"ja":"ハイスクール・フリート","cn_anime":"高校舰队","color":"#808080","ep":1,"s":"1dAoFpnYQj7xxSV9aJZRj6k0Mpfk","image":"https://image.anitabi.cn/points/144843/51i52vhk2_1675697956914.jpg?plan=h360"},"geometry":{"type":"Point","coordinates":[132.474033,34.244528]}},{"type":"Feature","properties":{"pid":"kpx6ohd7q","name":"01 After getting of the taxi","cn":"华盛顿纪念碑 Washington Monument","aid":1451,"ja":"東のエデン","cn_anime":"东之伊甸","color":"#d48080","ep":0,"s":"1v4lPr98QuAyZiuc_HbLOQjbmjfA","image":"https://image.anitabi.cn/points/1451/kpx6ohd7q_1735414775699.jpg?plan=h360"},"geometry":{"type":"Point","coordinates":[-77.033137,38.888846]}},{"type":"Feature","properties":{"pid":"kpx6ohij1","name":"自家焙煎珈琲店 らんぶる","cn":0,"aid":14588,"ja":"ゆるゆり","cn_anime":"摇曳百合","color":"#556347","ep":0,"s":"1dRSQ1N_WvgagXsi3_DlkXhXy5yA","image":"https://image.anitabi.cn/user/0/bangumi/14588/points/kpx6ohij1-1747196375559.jpg?plan=h360"},"geometry":{"type":"Point","coordinates":[137.016173,36.738419]}},{"type":"Feature","properties":{"pid":"r9zlkco7l","name":"入間​航空​基地","cn":"入间航空基地","aid":146093,"ja":"亜人","cn_anime":"亚人","color":"#5b5bdb","ep":0,"s":0,"image":"https://image.anitabi.cn/user/0/bangumi/146093/points/r9zlkco7l-1735096112795.jpg?plan=h360"},"geometry":{"type":"Point","coordinates":[139.41095,35.842402]}},{"type":"Feature","properties":{"pid":"51i52smm5","name":"河口","cn":0,"aid":146994,"ja":"だがしかし","cn_anime":"粗点心战争","color":"#7d5f81","ep":0,"s":"zhuyzvyJImNk.kd3HxniuUbBE","image":"https://image.anitabi.cn/points/146994/51i52smm5_1744731924749.jpg?plan=h360"},"geometry":{"type":"Point","coordinates":[139.842787,35.207819]}},{"type":"Feature","properties":{"pid":"kpx6ohpiv","name":"新京極看板","cn":0,"aid":147068,"ja":"3月のライオン","cn_anime":"3月的狮子","color":"#b1e6f8","ep":0,"s":"1F0DRNeGVqr8YRgBrKEu-fi69B8E","image":"https://image.anitabi.cn/points/147068/kpx6ohpiv_1740938580305.jpg?plan=h360"},"geometry":{"type":"Point","coordinates":[135.767187,35.003812]}},{"type":"Feature","properties":{"pid":"lxqd6sldz","name":"JALエービーシー成田空港第1ターミナル北ウイング到着階（1F）カウンター","cn":"成田国际机场T1航站楼北到达出口 1F","aid":147568,"ja":"Rewrite","cn_anime":"","color":"#71ddc3","ep":0,"s":"1VW4bmMFoeW-qvPU_7CBKVfc-kAs","image":"https://image.anitabi.cn/user/0/bangumi/147568/points/lxqd6sldz-1720030082250.jpg?plan=h360"},"geometry":{"type":"Point","coordinates":[140.386065,35.765246]}},{"type":"Feature","properties":{"pid":"oubjpxs60","name":"白馬八方尾根スキー場","cn":"白马八方尾根滑雪场","aid":14761,"ja":"かまいたちの夜","cn_anime":"镰鼬之夜","color":"#2764b4","ep":0,"s":0,"image":"https://image.anitabi.cn/points/14761/oubjpxs60_1728226736978.jpg?plan=h360"},"geometry":{"type":"Point","coordinates":[137.831072,36.703535]}},{"type":"Feature","properties":{"pid":"m756hsb6s","name":"東京テレポート駅 A出口","cn":"东京电讯港站","aid":14772,"ja":"踊る大捜査線","cn_anime":"跳跃大搜查线","color":"#2b6b00","ep":0,"s":0,"image":"https://image.anitabi.cn/points/14772/m756hsb6s_1720767711393.jpg?plan=h360"},"geometry":{"type":"Point","coordinates":[139.779594,35.627226]}},{"type":"Feature","properties":{"pid":"7nr2x6nhz","name":"伊東マリンタウン","cn":"伊东海洋城","aid":148142,"ja":"あまんちゅ！","cn_anime":"蓝海少女","color":"#65bbfe","ep":0,"s":0,"image":"https://image.anitabi.cn/user/0/bangumi/148142/points/7nr2x6nhz-1679757052407.jpg?plan=h360"},"geometry":{"type":"Point","coordinates":[139.094555,34.985551]}},{"type":"Feature","properties":{"pid":"kte0yiamu","name":"衍香楼","cn":0,"aid":14830,"ja":"","cn_anime":"大鱼·海棠","color":"#9b2d2a","ep":0,"s":0,"image":"https://image.anitabi.cn/points/14830/kte0yiamu_1716870275218.jpg?plan=h360"},"geometry":{"type":"Point","coordinates":[116.970676,24.60912]}},{"type":"Feature","properties":{"pid":"51i52vy75","name":"【品川駅 中央改札】","cn":0,"aid":148361,"ja":"くまみこ","cn_anime":"熊巫女","color":"#e19a25","ep":0,"s":"1BHXXGWl5jhbMb420TOWFLG31tO8","image":"https://image.anitabi.cn/points/148361/51i52vy75_1672372057260.jpg?plan=h360"},"geometry":{"type":"Point","coordinates":[139.738777,35.628846]}},{"type":"Feature","properties":{"pid":"p4c67t1dn","name":"Kiyomizu Temple","cn":"清水寺","aid":14878,"ja":"おジャ魔女どれみドッカ～ン!","cn_anime":"小魔女DoReMi 大合奏","color":"#bf9f40","ep":0,"s":0,"image":"https://image.anitabi.cn/user/0/bangumi/14878/points/p4c67t1dn-1729011062498.jpg?plan=h360"},"geometry":{"type":"Point","coordinates":[135.785219,34.994734]}},{"type":"Feature","properties":{"pid":"pf2jcv2as","name":"Peterskirche","cn":"圣彼得教堂西北角","aid":1488,"ja":"ef - the first tale.","cn_anime":"悠久之翼-前篇","color":"#1e1210","ep":0,"s":0,"image":"https://image.anitabi.cn/points/1488/pf2jcv2as_1729852004884.jpg?plan=h360"},"geometry":{"type":"Point","coordinates":[8.7056,49.409474]}},{"type":"Feature","properties":{"pid":"4a26d4bc","name":"八景島駅","cn":0,"aid":149993,"ja":"少女たちは荒野を目指す","cn_anime":"少女们向荒野进发","color":"#1c558e","ep":0,"s":"1XXfMZ3GTnlauxX3RKElujE9U_6g","image":"https://image.anitabi.cn/points/149993/4a26d4bc_1724388324356.jpg?plan=h360"},"geometry":{"type":"Point","coordinates":[139.64079,35.340858]}},{"type":"Feature","properties":{"pid":"51i52ygdj","name":"阿佐ヶ谷駅","cn":0,"aid":150775,"ja":"NEW GAME!","cn_anime":null,"color":"#b2aacf","ep":0,"s":"1uwuBqMBYVdYLpidbGOjWOXWJwQg","image":"https://image.anitabi.cn/points/150775/51i52ygdj_1672370785813.jpg?plan=h360"},"geometry":{"type":"Point","coordinates":[139.636005,35.704883]}},{"type":"Feature","properties":{"pid":"atdmu5ot3","name":"京坂六地藏前 リバティビル","cn":0,"aid":152091,"ja":"響け！ユーフォニアム2","cn_anime":"吹响吧！上低音号 2","color":"#2a5580","ep":0,"s":0,"image":"https://image.anitabi.cn/user/1000/bangumi/152091/points/atdmu5ot3-1688656590089.jpg?plan=h360"},"geometry":{"type":"Point","coordinates":[135.793264,34.932223]}},{"type":"Feature","properties":{"pid":"kpx6ohtxe","name":"川口総合病院","cn":0,"aid":15237,"ja":"神様のメモ帳","cn_anime":"神的记事本","color":"#1c3239","ep":0,"s":"17KvzgG405QeAdJLDbQPnNtK0qeU","image":"https://image.anitabi.cn/user/0/bangumi/15237/points/kpx6ohtxe-1740114048186.jpg?plan=h360"},"geometry":{"type":"Point","coordinates":[139.702419,35.809718]}},{"type":"Feature","properties":{"pid":"ce944927","name":"山梨県立白根高等学校","cn":0,"aid":1529,"ja":"イリヤの空、UFOの夏","cn_anime":"伊里野的天空、UFO的夏天","color":"#8eb8c6","ep":0,"s":"1vSRFRc6QwnkINi3KEy_6zRnW0YfHVpM","image":"https://image.anitabi.cn/points/1529/ce944927_1718298472714.jpg?plan=h360"},"geometry":{"type":"Point","coordinates":[138.494436,35.643518]}},{"type":"Feature","properties":{"pid":"67383df7","name":"松江駅","cn":0,"aid":154340,"ja":"√LETTER","cn_anime":"方根书简","color":"#00d3d6","ep":0,"s":"1o7LnBPSRMp0OWZyAFhpt-s1Eb4K48KbR","image":"https://image.anitabi.cn/points/154340/67383df7_1743922943414.jpg?plan=h360"},"geometry":{"type":"Point","coordinates":[133.063852,35.464098]}},{"type":"Feature","properties":{"pid":"5fdmz43wy","name":"OP 基町高校","cn":0,"aid":155704,"ja":"田中くんはいつもけだるげ","cn_anime":"田中君总是如此慵懒","color":"#695e54","ep":0,"s":"1HBmB29eTRVN6KWpBnwxpMBSUKuQ","image":"https://image.anitabi.cn/points/155704/5fdmz43wy_1673543730093.jpg?plan=h360"},"geometry":{"type":"Point","coordinates":[132.459385,34.404194]}},{"type":"Feature","properties":{"pid":"szf172862","name":"Via dei Bardi","cn":"老桥","aid":159159,"ja":"あんさんぶるスターズ！","cn_anime":"偶像梦幻祭","color":"#5b5bdb","ep":0,"s":0,"image":"https://image.anitabi.cn/user/0/bangumi/159159/points/szf172862-1739909896700.jpg?plan=h360"},"geometry":{"type":"Point","coordinates":[11.25354,43.767173]}},{"type":"Feature","properties":{"pid":"ie8uwld2l","name":"故宫（太和门）","cn":"故宫（太和门）","aid":159661,"ja":"クロムクロ","cn_anime":"黑色残骸","color":"#232332","ep":0,"s":0,"image":"https://image.anitabi.cn/user/0/bangumi/159661/points/ie8uwld2l-1710039670063.jpg?plan=h360"},"geometry":{"type":"Point","coordinates":[116.391072,39.913803]}},{"type":"Feature","properties":{"pid":"ieaqfxrf7","name":"天津西站","cn":"天津西站","aid":159690,"ja":"マギアレコード 魔法少女まどか☆マギカ外伝","cn_anime":"魔法纪录 魔法少女小圆外传","color":"#fc85bd","ep":0,"s":0,"image":"https://image.anitabi.cn/user/0/bangumi/159690/points/ieaqfxrf7-1710043989383.jpg?plan=h360"},"geometry":{"type":"Point","coordinates":[117.15705,39.157351]}},{"type":"Feature","properties":{"pid":"50f44fsnu","name":"草房地铁站","cn":"草房地铁站","aid":159725,"ja":"罗小黑战记","cn_anime":null,"color":"#322327","ep":0,"s":0,"image":"https://image.anitabi.cn/user/0/bangumi/159725/points/u.jpg?plan=h360"},"geometry":{"type":"Point","coordinates":[116.610271,39.923106]}},{"type":"Feature","properties":{"pid":"3ik9kj0e","name":"信濃町歩道橋","cn":0,"aid":160209,"ja":"君の名は。","cn_anime":"你的名字。","color":"#0080ff","ep":0,"s":"1x6VZkTtu6d0FLZV_i_MFBYhwqYY","image":"https://image.anitabi.cn/points/160209/3ik9kj0e.jpg?plan=h360"},"geometry":{"type":"Point","coordinates":[139.71953,35.679656]}},{"type":"Feature","properties":{"pid":"63149cbf","name":"５丁目","cn":"独酌 三四郎","aid":160547,"ja":"孤独のグルメ お正月スペシャル! 真冬の北海道・旭川出張編","cn_anime":"孤独的美食家新春SP：严冬之北海道·旭川出差篇","color":"#5b5bdb","ep":0,"s":"1w1GKYAlLTvcSAf3ax5D522-nYUJ8OSY","image":"https://image.anitabi.cn/points/160547/63149cbf_1741372483157.jpg?plan=h360"},"geometry":{"type":"Point","coordinates":[142.356432,43.768189]}},{"type":"Feature","properties":{"pid":"c6qm03aw0","name":"夙川オアシスロード","cn":0,"aid":1606,"ja":"涼宮ハルヒの憂鬱","cn_anime":"凉宫春日的忧郁 2009","color":"#157fea","ep":0,"s":0,"image":"https://image.anitabi.cn/user/0/bangumi/1606/points/c6qm03aw0-1692524709515.jpg?plan=h360"},"geometry":{"type":"Point","coordinates":[135.329083,34.731149]}},{"type":"Feature","properties":{"pid":"kpx6ohv8r","name":"湘北高校","cn":0,"aid":1608,"ja":"スラムダンク","cn_anime":"灌篮高手","color":"#aa0000","ep":0,"s":"1L5wpIrHwqYqvhchMW6zWj9thEbs","image":"https://image.anitabi.cn/user/0/bangumi/1608/points/kpx6ohv8r-1724759245124.jpg?plan=h360"},"geometry":{"type":"Point","coordinates":[139.55762,35.72042]}},{"type":"Feature","properties":{"pid":"lvz4gprt8","name":"Piazza Di Spagna","cn":"西班牙阶梯","aid":161787,"ja":"銀色、遥か","cn_anime":"银色遥远","color":"#f8c3b1","ep":0,"s":0,"image":"https://image.anitabi.cn/points/161787/lvz4gprt8_1719892296018.jpg?plan=h360"},"geometry":{"type":"Point","coordinates":[12.482299,41.905831]}},{"type":"Feature","properties":{"pid":"p7r7fk8tm","name":"JR上野駅 広小路口","cn":0,"aid":16245,"ja":"世界でいちばんNG（だめ）な恋","cn_anime":"世界上最NG的恋爱","color":"#ff809f","ep":0,"s":0,"image":"https://image.anitabi.cn/points/16245/p7r7fk8tm_1729278779822.jpg?plan=h360"},"geometry":{"type":"Point","coordinates":[139.776146,35.711413]}},{"type":"Feature","properties":{"pid":"pj8buk22h","name":"Cristo Redentor","cn":"里约热内卢基督像","aid":16437,"ja":"Rio","cn_anime":"里约大冒险","color":"#5b5bdb","ep":0,"s":0,"image":"https://image.anitabi.cn/user/0/bangumi/16437/points/pj8buk22h-1730178076363.jpg?plan=h360"},"geometry":{"type":"Point","coordinates":[-43.210459,-22.951919]}},{"type":"Feature","properties":{"pid":"51i52b4e2","name":"桜木町駅 (モデル1/2)","cn":0,"aid":1650,"ja":"君が望む永遠","cn_anime":"你所期望的永远","color":"#556aaa","ep":0,"s":"z60v_I865QYs.ksou3VpfLUxs","image":"https://image.anitabi.cn/user/2171/bangumi/1650/points/51i52b4e2-1739670466741.jpg?plan=h360"},"geometry":{"type":"Point","coordinates":[139.631564,35.450936]}},{"type":"Feature","properties":{"pid":"kog35rnei","name":"淡島船乗り場","cn":"淡岛码头","aid":165553,"ja":"ラブライブ! サンシャイン!!","cn_anime":"LoveLive! Sunshine!!","color":"#00a2e8","ep":0,"s":0,"image":"https://image.anitabi.cn/user/0/bangumi/165553/points/kog35rnei-1716481217772.jpg?plan=h360"},"geometry":{"type":"Point","coordinates":[138.890584,35.034237]}},{"type":"Feature","properties":{"pid":"omb282ng8","name":"SEOUL SQUARE","cn":0,"aid":166454,"ja":"미생","cn_anime":"未生","color":"#aa8055","ep":0,"s":0,"image":"https://image.anitabi.cn/points/166454/omb282ng8_1727598105872.jpg?plan=h360"},"geometry":{"type":"Point","coordinates":[126.973772,37.555576]}},{"type":"Feature","properties":{"pid":"kpx6ohzhe","name":"六本木ヒルズ ストリートファニチャー：アーチ","cn":0,"aid":1671,"ja":"化物語","cn_anime":"化物语","color":"#63aaf1","ep":0,"s":"15w0Vv1JUp8AEjH01_I4tZarrumA","image":"https://image.anitabi.cn/user/0/bangumi/1671/points/kpx6ohzhe-1733661870461.jpg?plan=h360"},"geometry":{"type":"Point","coordinates":[139.729727,35.659129]}},{"type":"Feature","properties":{"pid":"o2svrzwyl","name":"武蔵国分寺","cn":"武藏国分寺","aid":167343,"ja":"カルタグラ","cn_anime":"恋狱","color":"#5b5bdb","ep":0,"s":0,"image":"https://image.anitabi.cn/user/0/bangumi/167343/points/o2svrzwyl-1726069491918.jpg?plan=h360"},"geometry":{"type":"Point","coordinates":[139.471031,35.693458]}},{"type":"Feature","properties":{"pid":"51i537qhf","name":"猿楽小学校裏交差点","cn":0,"aid":167434,"ja":"ガーリッシュ ナンバー","cn_anime":"少女编号","color":"#d48095","ep":0,"s":"1WjK9VfjtUdwmcAzkpsvsXphzUhg","image":"https://image.anitabi.cn/points/167434/51i537qhf_1672382614799.jpg?plan=h360"},"geometry":{"type":"Point","coordinates":[139.70311,35.650683]}},{"type":"Feature","properties":{"pid":"575zco54r","name":"東京","cn":"东京","aid":167655,"ja":"幼女戦記","cn_anime":"幼女战记","color":"#496e60","ep":0,"s":0,"image":"https://image.anitabi.cn/user/1000/bangumi/167655/points/575zco54r-1672810556273.jpg?plan=h360"},"geometry":{"type":"Point","coordinates":[139.766091,35.681383]}},{"type":"Feature","properties":{"pid":"oxh4u78vn","name":"釧路湿原展望台","cn":0,"aid":16777,"ja":"宙のまにまに","cn_anime":"浪漫追星社","color":"#095dab","ep":0,"s":0,"image":"https://image.anitabi.cn/points/16777/oxh4u78vn_1728473211235.jpg?plan=h360"},"geometry":{"type":"Point","coordinates":[144.32028,43.073476]}},{"type":"Feature","properties":{"pid":"51i53hko1","name":"高松港 赤灯台","cn":0,"aid":168417,"ja":"うどんの国の金色毛鞠","cn_anime":"乌冬面之国的金色毛毬","color":"#d4bf80","ep":0,"s":"10OiOzqXeEN-ECzbbE5HRfQv63qQ","image":"https://image.anitabi.cn/points/168417/51i53hko1_1673491807273.jpg?plan=h360"},"geometry":{"type":"Point","coordinates":[134.051249,34.36085]}},{"type":"Feature","properties":{"pid":"51i536gtp","name":"19世紀ホール","cn":0,"aid":168634,"ja":"競女!!!!!!!!","cn_anime":"竞女","color":"#63cdf1","ep":0,"s":"1vLeEZTknGNBJDMEzgUvKQi3m-WI","image":"https://image.anitabi.cn/points/168634/51i536gtp_1672368292971.jpg?plan=h360"},"geometry":{"type":"Point","coordinates":[135.68079,35.018442]}},{"type":"Feature","properties":{"pid":"kpx6oibbl","name":"すきっぷ通り商店街入り口","cn":0,"aid":170261,"ja":"甘々と稲妻","cn_anime":"天真与闪电","color":"#63aaf1","ep":0,"s":"1qNM0GW5AZgQGBX39I_qCOfoEAG8","image":"https://image.anitabi.cn/points/170261/kpx6oibbl_1729359103168.jpg?plan=h360"},"geometry":{"type":"Point","coordinates":[139.544228,35.70257]}},{"type":"Feature","properties":{"pid":"kpx6oiciv","name":"階段国道","cn":0,"aid":1707,"ja":"雲のむこう、約束の場所","cn_anime":"云之彼端，约定的地方","color":"#0055aa","ep":0,"s":"1uuxQ-SlQXIODE_TLKArJ_of1vlY","image":"https://image.anitabi.cn/user/0/bangumi/1707/points/kpx6oiciv-1727946018132.jpg?plan=h360"},"geometry":{"type":"Point","coordinates":[140.345109,41.259545]}},{"type":"Feature","properties":{"pid":"r974uk8su","name":"هرم خوفو","cn":"胡夫金字塔","aid":17111,"ja":"ウルトラマンマックス","cn_anime":"麦克斯奥特曼","color":"#5b5bdb","ep":0,"s":0,"image":"https://image.anitabi.cn/user/0/bangumi/17111/points/r974uk8su-1735034020544.jpg?plan=h360"},"geometry":{"type":"Point","coordinates":[31.134251,29.978905]}},{"type":"Feature","properties":{"pid":"51i5dy6xf","name":"五反野駅","cn":0,"aid":172498,"ja":"エロマンガ先生","cn_anime":"埃罗芒阿老师","color":"#55aaff","ep":0,"s":"1Nza_RcEry4raFZXiYS5rQQIA824","image":"https://image.anitabi.cn/user/0/bangumi/172498/points/51i5dy6xf-1725606247631.jpg?plan=h360"},"geometry":{"type":"Point","coordinates":[139.809332,35.766277]}},{"type":"Feature","properties":{"pid":"079e252e","name":"Roswell","cn":"罗斯威尔城外","aid":172502,"ja":"Highway Blossoms","cn_anime":"花开公路","color":"#f75712","ep":0,"s":"1X71ZwogKfXT6MMDNklCCX16fsZPNky8","image":"https://image.anitabi.cn/points/172502/079e252e_1716916031631.jpg?plan=h360"},"geometry":{"type":"Point","coordinates":[-104.518389,33.533917]}},{"type":"Feature","properties":{"pid":"kpx6oid52","name":"銀座中央通り","cn":0,"aid":1731,"ja":"大正野球娘。","cn_anime":"大正野球娘。","color":"#55aa55","ep":0,"s":"1R1vM7cqIhMQhiGMjwoLsMf_hueY","image":"https://image.anitabi.cn/points/1731/kpx6oid52_1734254529306.jpg?plan=h360"},"geometry":{"type":"Point","coordinates":[139.761994,35.668279]}},{"type":"Feature","properties":{"pid":"eea357e0","name":"（疑误）登波离桥——亚由美桥","cn":0,"aid":1733,"ja":"Memories Off 2nd","cn_anime":"秋之回忆2","color":"#5b5bdb","ep":0,"s":"1wBTFyDxb9av_H_ILmBHkzfuJxew","image":"https://image.anitabi.cn/points/1733/eea357e0_1734158452054.jpg?plan=h360"},"geometry":{"type":"Point","coordinates":[139.371808,35.445271]}},{"type":"Feature","properties":{"pid":"kpx6oihmd","name":"地震発生時の所在","cn":"地震发生时的位置","aid":1743,"ja":"東京マグニチュード8.0","cn_anime":"东京地震8.0","color":"#475563","ep":0,"s":"1nz9H1xWT0RzFEReZ75vCaSbDhRs","image":"https://image.anitabi.cn/user/0/bangumi/1743/points/kpx6oihmd-1720608288162.jpg?plan=h360"},"geometry":{"type":"Point","coordinates":[139.772347,35.627599]}},{"type":"Feature","properties":{"pid":"372a0c35","name":"郡山布引高原風力発電所（？）","cn":0,"aid":174584,"ja":"フリップフラッパーズ","cn_anime":"轻拍翻转小魔女","color":"#f6a1b6","ep":0,"s":"1H9u7VCXe3LVmDkbop2IbL-j5IKQ","image":"https://image.anitabi.cn/points/174584/372a0c35_1720209462029.jpg?plan=h360"},"geometry":{"type":"Point","coordinates":[140.054977,37.33734]}},{"type":"Feature","properties":{"pid":"51i53pkls","name":"超広角アングル","cn":0,"aid":174592,"ja":"ハンドシェイカー","cn_anime":"Hand Shakers","color":"#9fe2f9","ep":0,"s":"1Zh6mXRuao16PJlLoZjJK-AfKuao","image":"https://image.anitabi.cn/points/174592/51i53pkls_1672368147018.jpg?plan=h360"},"geometry":{"type":"Point","coordinates":[135.50057,34.674719]}},{"type":"Feature","properties":{"pid":"51i535udg","name":"唐津駅","cn":0,"aid":174998,"ja":"ユーリ!!! on ICE","cn_anime":"冰上的尤里","color":"#0676f7","ep":0,"s":"1xiL0gz7DztzX3KeJgo01p88aA7g","image":"https://image.anitabi.cn/points/174998/51i535udg_1672368676541.jpg?plan=h360"},"geometry":{"type":"Point","coordinates":[129.967441,33.446301]}},{"type":"Feature","properties":{"pid":"51i5dzn7x","name":"旧前田侯爵邸洋館","cn":0,"aid":175404,"ja":"ISLAND","cn_anime":"ISLAND","color":"#b6bed9","ep":0,"s":"1Em9F2P72D6hBpcdxEbAZzfSro3g8Q-t0","image":"https://image.anitabi.cn/user/1073/bangumi/175404/points/51i5dzn7x-1743270324308.jpg?plan=h360"},"geometry":{"type":"Point","coordinates":[139.680097,35.662104]}},{"type":"Feature","properties":{"pid":"p0mvb3xm0","name":"岐阜県警察本部","cn":0,"aid":176086,"ja":"真 流行り神2","cn_anime":"真 流行之神2","color":"#e32024","ep":0,"s":0,"image":"https://image.anitabi.cn/points/176086/p0mvb3xm0_1728720881689.jpg?plan=h360"},"geometry":{"type":"Point","coordinates":[136.720704,35.390802]}},{"type":"Feature","properties":{"pid":"51i53qvse","name":"多摩動物公園 サーバルキャット舎","cn":0,"aid":176478,"ja":"けものフレンズ","cn_anime":"动物朋友","color":"#e3aa71","ep":0,"s":"166LgiTupEBfRI17zldZsTDT6gjs","image":"https://image.anitabi.cn/user/0/bangumi/176478/points/51i53qvse-1673608607240.jpg?plan=h360"},"geometry":{"type":"Point","coordinates":[139.403373,35.652702]}},{"type":"Feature","properties":{"pid":"98d68656","name":"第1話　逃げている道中1","cn":0,"aid":176518,"ja":"planetarian～ちいさなほしのゆめ～","cn_anime":"星之梦","color":"#152040","ep":0,"s":"1ZJgkqQwpW33CwRoRE0QGbNES6KcIWz4","image":"https://image.anitabi.cn/points/176518/98d68656_1726752109662.jpg?plan=h360"},"geometry":{"type":"Point","coordinates":[137.734947,34.705754]}},{"type":"Feature","properties":{"pid":"51i53b4u0","name":"平岡公園待ち合わせ場所","cn":0,"aid":176599,"ja":"WWW.WORKING!!","cn_anime":"WWW.迷糊餐厅","color":"#774329","ep":0,"s":"18VFHDJKlUfHjaKP53d-X5vTbenU","image":"https://image.anitabi.cn/points/176599/51i53b4u0_1741446963048.jpg?plan=h360"},"geometry":{"type":"Point","coordinates":[141.460975,43.0039]}},{"type":"Feature","properties":{"pid":"kysm1rtng","name":"渋谷駅東口バス停","cn":0,"aid":1773,"ja":"DEATH NOTE","cn_anime":"死亡笔记","color":"#2c0405","ep":0,"s":0,"image":"https://image.anitabi.cn/points/1773/kysm1rtng_1717292592086.jpg?plan=h360"},"geometry":{"type":"Point","coordinates":[139.702909,35.658486]}},{"type":"Feature","properties":{"pid":"kpx6oiwyb","name":"スズラン百貨店高崎店付近","cn":0,"aid":17883,"ja":"僕は友達が少ない","cn_anime":"我的朋友很少","color":"#47635c","ep":0,"s":"1m9b0hbW3RyFNWac57ArqZPhxQG4","image":"https://image.anitabi.cn/points/17883/kpx6oiwyb_1735404718746.jpg?plan=h360"},"geometry":{"type":"Point","coordinates":[139.004436,36.324314]}},{"type":"Feature","properties":{"pid":"mzo715ffe","name":"明石市立天文科学館","cn":"明石市立天文科学馆","aid":178884,"ja":"planetarian～星の人～","cn_anime":null,"color":"#8d8dd5","ep":0,"s":0,"image":"https://image.anitabi.cn/user/0/bangumi/178884/points/mzo715ffe-1723005196565.jpg?plan=h360"},"geometry":{"type":"Point","coordinates":[135.001657,34.649368]}},{"type":"Feature","properties":{"pid":"09a78b82","name":"1越谷駅 西口","cn":0,"aid":179949,"ja":"小林さんちのメイドラゴン","cn_anime":"小林家的龙女仆","color":"#ff8800","ep":0,"s":"1Ql3IPoV0dhpAz6GbjZwXlOWDnEg","image":"https://image.anitabi.cn/user/0/bangumi/179949/points/09a78b82-1738689156295.jpg?plan=h360"},"geometry":{"type":"Point","coordinates":[139.785538,35.888222]}},{"type":"Feature","properties":{"pid":"n7n7jm8fz","name":"Ponte di Rialto","cn":0,"aid":18016,"ja":"ストライクウィッチーズ 劇場版","cn_anime":"强袭魔女 剧场版","color":"#4258ff","ep":0,"s":0,"image":"https://image.anitabi.cn/user/0/bangumi/18016/points/n7n7jm8fz-1723627838397.jpg?plan=h360"},"geometry":{"type":"Point","coordinates":[12.336083,45.437802]}},{"type":"Feature","properties":{"pid":"ign12un60","name":"いくたじんじゃ","cn":"生田神社","aid":180931,"ja":"千恋＊万花","cn_anime":"千恋万花","color":"#553971","ep":0,"s":0,"image":"https://image.anitabi.cn/user/1115/bangumi/180931/points/ign12un60-1718537388475.jpg?plan=h360"},"geometry":{"type":"Point","coordinates":[135.190711,34.694737]}},{"type":"Feature","properties":{"pid":"r8zkeeu9u","name":"東京タワー","cn":"东京塔","aid":181395,"ja":"ウルトラマンオーブ","cn_anime":"欧布奥特曼","color":"#5b5bdb","ep":0,"s":0,"image":"https://image.anitabi.cn/user/0/bangumi/181395/points/r8zkeeu9u-1735017607816.jpg?plan=h360"},"geometry":{"type":"Point","coordinates":[139.745404,35.65857]}},{"type":"Feature","properties":{"pid":"qfwm1j59j","name":"JR福知山線脱線事故","cn":0,"aid":181857,"ja":"ラパス・テーマパーク","cn_anime":"拉帕斯主题公园","color":"#d22239","ep":0,"s":0,"image":"https://image.anitabi.cn/points/181857/qfwm1j59j_1732738716479.jpg?plan=h360"},"geometry":{"type":"Point","coordinates":[135.426609,34.741419]}},{"type":"Feature","properties":{"pid":"s8rpg09wj","name":"近江勧学館","cn":0,"aid":18294,"ja":"ちはやふる","cn_anime":"歌牌情缘","color":"#80bf40","ep":0,"s":0,"image":"https://image.anitabi.cn/user/2168/bangumi/18294/points/s8rpg09wj-1737821560092.jpg?plan=h360"},"geometry":{"type":"Point","coordinates":[135.852726,35.033593]}},{"type":"Feature","properties":{"pid":"ab7ad3n61","name":"Porto di Genova","cn":"热那亚港","aid":183878,"ja":"ヴァイオレット・エヴァーガーデン","cn_anime":"紫罗兰永恒花园","color":"#1e67da","ep":0,"s":"1mgA14WIpe6ElaSXqB9QMs9sjYc53zCTq","image":"https://image.anitabi.cn/user/0/bangumi/183878/points/ab7ad3n61-1687232272635.jpg?plan=h360"},"geometry":{"type":"Point","coordinates":[8.917482,44.408541]}},{"type":"Feature","properties":{"pid":"59pe2e7lt","name":"البحر الميت ים המלח","cn":"死海","aid":183891,"ja":"カードキャプターさくら クリアカード編","cn_anime":"魔卡少女樱 透明牌篇","color":"#2b7fd4","ep":0,"s":0,"image":"https://image.anitabi.cn/user/1000/bangumi/183891/points/59pe2e7lt-1673009405434.jpg?plan=h360"},"geometry":{"type":"Point","coordinates":[35.529955,31.703045]}},{"type":"Feature","properties":{"pid":"kpx6oj4f8","name":"1.宇治山田高等学校前","cn":0,"aid":1839,"ja":"半分の月がのぼる空","cn_anime":"仰望半月的夜空","color":"#5c4763","ep":0,"s":"1Oi-jP742uH2EhRzrdhIcvw14r7Y","image":"https://image.anitabi.cn/points/1839/kpx6oj4f8_1740589811455.jpg?plan=h360"},"geometry":{"type":"Point","coordinates":[136.694797,34.487594]}},{"type":"Feature","properties":{"pid":"qdevqum31","name":"The White House","cn":"白宫","aid":1848,"ja":"R.O.D -READ OR DIE-","cn_anime":"读或死 OVA","color":"#d5d5d5","ep":0,"s":0,"image":"https://image.anitabi.cn/user/0/bangumi/1848/points/qdevqum31-1732543281042.jpg?plan=h360"},"geometry":{"type":"Point","coordinates":[-77.036543,38.897641]}},{"type":"Feature","properties":{"pid":"51i52te5a","name":"水戸駅北口","cn":0,"aid":185001,"ja":"ももくり","cn_anime":"小桃小栗 Love Love物语","color":"#b8aa9c","ep":0,"s":"1UFPlPriPGqfy3QxcYcuHmqdYHIQ","image":"https://image.anitabi.cn/points/185001/51i52te5a_1672369361435.jpg?plan=h360"},"geometry":{"type":"Point","coordinates":[140.476867,36.371608]}},{"type":"Feature","properties":{"pid":"kkfsf6q9e","name":"SHIBUYA 109","cn":"SHIBUYA109","aid":1851,"ja":"Angel Beats!","cn_anime":"天使的心跳！","color":"#9c8ec6","ep":0,"s":0,"image":"https://image.anitabi.cn/user/0/bangumi/1851/points/kkfsf6q9e-1716167149440.jpg?plan=h360"},"geometry":{"type":"Point","coordinates":[139.698524,35.659452]}},{"type":"Feature","properties":{"pid":"qatpk5c5m","name":"黑沙滩","cn":"黑沙滩","aid":185181,"ja":"DEATH STRANDING","cn_anime":"死亡搁浅","color":"#5b5bdb","ep":0,"s":0,"image":"https://image.anitabi.cn/points/185181/qatpk5c5m_1732418760606_c16v9.jpg?plan=h360"},"geometry":{"type":"Point","coordinates":[-18.985703,63.419907]}},{"type":"Feature","properties":{"pid":"r13po2xuf","name":"稲尾","cn":"稻尾","aid":1852,"ja":"おねがい☆ツインズ","cn_anime":"拜托了双子星","color":"#5b5bdb","ep":0,"s":0,"image":"https://image.anitabi.cn/user/0/bangumi/1852/points/r13po2xuf-1734399711127.jpg?plan=h360"},"geometry":{"type":"Point","coordinates":[137.842513,36.554853]}},{"type":"Feature","properties":{"pid":"51i53scav","name":"むらさき橋 PV","cn":0,"aid":185762,"ja":"政宗くんのリベンジ","cn_anime":"政宗君的复仇","color":"#3d4782","ep":0,"s":"1dKowekrK9s6a3dZsdroNpFzz25E","image":"https://image.anitabi.cn/points/185762/51i53scav_1672382822569.jpg?plan=h360"},"geometry":{"type":"Point","coordinates":[139.566219,35.700832]}},{"type":"Feature","properties":{"pid":"ljy77h2g5","name":"日比谷公園大音楽堂","cn":"日比谷公园大音乐堂","aid":185792,"ja":"リトルウィッチアカデミア","cn_anime":"小魔女学园","color":"#6d5052","ep":0,"s":0,"image":"https://image.anitabi.cn/points/185792/ljy77h2g5_1718950462494.jpg?plan=h360"},"geometry":{"type":"Point","coordinates":[139.754028,35.672359]}},{"type":"Feature","properties":{"pid":"ndzsw0hwz","name":"重庆市","cn":0,"aid":186180,"ja":"重神機パンドーラ","cn_anime":"重神机潘多拉","color":"#152040","ep":0,"s":0,"image":"https://image.anitabi.cn/points/186180/ndzsw0hwz_1724125441015.jpg?plan=h360"},"geometry":{"type":"Point","coordinates":[106.557249,29.569674]}},{"type":"Feature","properties":{"pid":"lnf2ngqox","name":"壁","cn":0,"aid":18624,"ja":"輪るピングドラム","cn_anime":"回转企鹅罐","color":"#d42b2b","ep":0,"s":0,"image":"https://image.anitabi.cn/points/18624/lnf2ngqox_1719221968394.jpg?plan=h360"},"geometry":{"type":"Point","coordinates":[139.621064,35.698673]}},{"type":"Feature","properties":{"pid":"pvqk3zv7d","name":"Starbucks Coffee-大宮西口店","cn":0,"aid":18631,"ja":"灼眼のシャナIII -Final-","cn_anime":"灼眼的夏娜III -Final-","color":"#5b5bdb","ep":0,"s":0,"image":"https://image.anitabi.cn/user/1099/bangumi/18631/points/pvqk3zv7d-1731158159928.jpg?plan=h360"},"geometry":{"type":"Point","coordinates":[139.621368,35.905682]}},{"type":"Feature","properties":{"pid":"51i522lv2","name":"ポイントA","cn":0,"aid":18635,"ja":"ギルティクラウン","cn_anime":"罪恶王冠","color":"#cd322f","ep":0,"s":"1Y8CoeBh4gWe5DDItU7KNuyzXf9g","image":"https://image.anitabi.cn/user/0/bangumi/18635/points/51i522lv2-1729640342902.jpg?plan=h360"},"geometry":{"type":"Point","coordinates":[139.749811,35.616864]}},{"type":"Feature","properties":{"pid":"8546c476","name":"旬八青果店 五反田店（トライアル店舗）","cn":0,"aid":186515,"ja":"BanG Dream!","cn_anime":null,"color":"#ed145b","ep":0,"s":"1J0K2QKstx1fjyCXMh2ZgWzgA5287_ZCt","image":"https://image.anitabi.cn/points/186515/8546c476_1722413929613.jpg?plan=h360"},"geometry":{"type":"Point","coordinates":[139.719654,35.62476]}},{"type":"Feature","properties":{"pid":"51i53obln","name":"浜松城公園（天守曲輪）","cn":0,"aid":188091,"ja":"ガヴリールドロップアウト","cn_anime":"珈百璃的堕落","color":"#f9d41a","ep":0,"s":"1OPO0Fbly7mLxN31ml73Pb4hRk9I","image":"https://image.anitabi.cn/points/188091/51i53obln_1672368046826.jpg?plan=h360"},"geometry":{"type":"Point","coordinates":[137.725859,34.711145]}},{"type":"Feature","properties":{"pid":"51i53sp1s","name":"成増駅前","cn":0,"aid":188412,"ja":"風夏","cn_anime":"风夏","color":"#7fe2f6","ep":0,"s":"1SrPs3rUkP9HlP49W8-FQ6mRwUaU","image":"https://image.anitabi.cn/points/188412/51i53sp1s_1672370570178.jpg?plan=h360"},"geometry":{"type":"Point","coordinates":[139.632612,35.777254]}},{"type":"Feature","properties":{"pid":"ujkbjb69h","name":"Round 1 Stadium ラウンドワンスタジアム ダイバーシティ東京 プラザ店","cn":0,"aid":189739,"ja":"9-nine-ここのつここのかここのいろ Episode.1 Miyako Kujo","cn_anime":"9-nine-九次九日九重色","color":"#5b5bdb","ep":0,"s":0,"image":"https://image.anitabi.cn/user/2171/bangumi/189739/points/ujkbjb69h-1744309749206.jpg?plan=h360"},"geometry":{"type":"Point","coordinates":[139.776256,35.625521]}},{"type":"Feature","properties":{"pid":"nxuc93ioe","name":"Центральна площа","cn":"波利西亚酒店","aid":1900,"ja":"Call of Duty 4: Modern Warfare","cn_anime":"使命召唤4：现代战争","color":"#5b5bdb","ep":0,"s":0,"image":"https://image.anitabi.cn/user/0/bangumi/1900/points/nxuc93ioe-1725681038455.jpg?plan=h360"},"geometry":{"type":"Point","coordinates":[30.057086,51.406331]}},{"type":"Feature","properties":{"pid":"pia6t707s","name":"无锡市第一高级中学","cn":"无锡市第一高级中学","aid":190111,"ja":"全职法师","cn_anime":"全职法师","color":"#5b5bdb","ep":0,"s":0,"image":"https://image.anitabi.cn/user/0/bangumi/190111/points/pia6t707s-1730103761947.jpg?plan=h360"},"geometry":{"type":"Point","coordinates":[120.27927,31.580423]}},{"type":"Feature","properties":{"pid":"2rp7txh","name":"上田城跡公園","cn":0,"aid":1905,"ja":"サマーウォーズ","cn_anime":"夏日大作战","color":"#d4bf80","ep":0,"s":"10xl98ZsURqEHQV_tsBnXvR0ptB8","image":"https://image.anitabi.cn/points/1905/2rp7txh_1745592223001.jpg?plan=h360"},"geometry":{"type":"Point","coordinates":[138.244437,36.403797]}},{"type":"Feature","properties":{"pid":"kqrsk680u","name":"基辅号航母","cn":"真理高校学园舰","aid":191302,"ja":"ガールズ&パンツァー 最終章 第1話","cn_anime":"少女与战车 最终章 第1话","color":"#737a43","ep":0,"s":0,"image":"https://image.anitabi.cn/user/0/bangumi/191302/points/kqrsk680u-1716663433475.jpg?plan=h360"},"geometry":{"type":"Point","coordinates":[117.808316,39.155235]}},{"type":"Feature","properties":{"pid":"im0ogzhc1","name":"宝ヶ池通","cn":0,"aid":191398,"ja":"サノバウィッチ","cn_anime":"魔女的夜宴","color":"#d48095","ep":0,"s":0,"image":"https://image.anitabi.cn/user/0/bangumi/191398/points/im0ogzhc1-1710649036208.jpg?plan=h360"},"geometry":{"type":"Point","coordinates":[135.773104,35.052549]}},{"type":"Feature","properties":{"pid":"51i53n0zb","name":"時計台","cn":0,"aid":191956,"ja":"亜人ちゃんは語りたい","cn_anime":"亚人酱有话要说","color":"#35d4ac","ep":0,"s":"1QcWLUTFN_WpB4vOjMoaPr6fh42c","image":"https://image.anitabi.cn/points/191956/51i53n0zb_1672373565087.jpg?plan=h360"},"geometry":{"type":"Point","coordinates":[139.549992,35.319209]}},{"type":"Feature","properties":{"pid":"lzu2x6wzo","name":"壬生寺","cn":"壬生寺","aid":1930,"ja":"PEACE MAKER 鐵","cn_anime":null,"color":"#9e2000","ep":0,"s":0,"image":"https://image.anitabi.cn/points/1930/lzu2x6wzo_1720243707326.jpg?plan=h360"},"geometry":{"type":"Point","coordinates":[135.743408,35.001527]}},{"type":"Feature","properties":{"pid":"50vjonq5y","name":"旭展望台","cn":0,"aid":1931,"ja":"最終兵器彼女","cn_anime":"最终兵器彼女","color":"#9cb1b8","ep":0,"s":"1ViQ8Ac25mEBFd5CxZ-kPrcSa5TM","image":"https://image.anitabi.cn/user/0/bangumi/1931/points/50vjonq5y-1722134978295.jpg?plan=h360"},"geometry":{"type":"Point","coordinates":[140.984555,43.197073]}},{"type":"Feature","properties":{"pid":"ln83fcmv3","name":"久慈滨海水浴场，1 Chome-17 Kujichō, Hitachi, Ibaraki 319-1222日本","cn":"久慈滨海水浴场","aid":193378,"ja":"サクラダリセット","cn_anime":"重启咲良田","color":"#474e63","ep":0,"s":0,"image":"https://image.anitabi.cn/user/1102/bangumi/193378/points/ln83fcmv3-1719206786107.jpg?plan=h360"},"geometry":{"type":"Point","coordinates":[140.629989,36.506171]}},{"type":"Feature","properties":{"pid":"nmjufozds","name":"四天王寺高等学校","cn":"四天宝寺高校","aid":1939,"ja":"テニスの王子様","cn_anime":"网球王子","color":"#5b5bdb","ep":0,"s":0,"image":"https://image.anitabi.cn/user/0/bangumi/1939/points/nmjufozds-1724796099050.jpg?plan=h360"},"geometry":{"type":"Point","coordinates":[135.51466,34.654277]}},{"type":"Feature","properties":{"pid":"lnt3quu5c","name":"维多利亚港","cn":"维多利亚港","aid":1941,"ja":"劇場版カードキャプターさくら","cn_anime":"魔卡少女樱 剧场版1","color":"#bd2f00","ep":0,"s":0,"image":"https://image.anitabi.cn/points/1941/lnt3quu5c_1740331243125.jpg?plan=h360"},"geometry":{"type":"Point","coordinates":[114.171253,22.293203]}},{"type":"Feature","properties":{"pid":"fe16af41","name":"牛たん萃萃","cn":0,"aid":194191,"ja":"孤独のグルメ スペシャル! 真夏の東北・宮城出張編","cn_anime":"孤独的美食家 特别篇！真夏的东北・宫城出差篇","color":"#5b5bdb","ep":0,"s":"1c_MiutOtFIdbQUni5Zqfdv09Sivx-Lw","image":"https://image.anitabi.cn/points/194191/fe16af41_1741373641715.jpg?plan=h360"},"geometry":{"type":"Point","coordinates":[140.91404,38.255558]}},{"type":"Feature","properties":{"pid":"5c45grtvm","name":"九曲桥广场","cn":"九曲桥广场","aid":1952,"ja":"CANAAN","cn_anime":"迦南","color":"#7d1724","ep":0,"s":0,"image":"https://image.anitabi.cn/user/0/bangumi/1952/points/5c45grtvm-1673198201906.jpg?plan=h360"},"geometry":{"type":"Point","coordinates":[121.487204,31.228355]}},{"type":"Feature","properties":{"pid":"nyh0vvhzn","name":"Main St","cn":"黑水镇","aid":195573,"ja":"Red Dead Redemption 2","cn_anime":"荒野大镖客：救赎2","color":"#aa0000","ep":0,"s":0,"image":"https://image.anitabi.cn/user/0/bangumi/195573/points/nyh0vvhzn-1725730409439.jpg?plan=h360"},"geometry":{"type":"Point","coordinates":[-92.990977,38.980299]}},{"type":"Feature","properties":{"pid":"pbymn1ful","name":"Düsseldorf","cn":"杜塞尔多夫(俯瞰)","aid":1959,"ja":"MONSTER","cn_anime":"怪物","color":"#5b5bdb","ep":0,"s":0,"image":"https://image.anitabi.cn/user/0/bangumi/1959/points/pbymn1ful-1729608397671.jpg?plan=h360"},"geometry":{"type":"Point","coordinates":[6.775537,51.224895]}},{"type":"Feature","properties":{"pid":"k23mqowwu","name":"东湖路","cn":0,"aid":196074,"ja":"我和她的世界末日","cn_anime":null,"color":"#713955","ep":0,"s":0,"image":"https://image.anitabi.cn/user/0/bangumi/196074/points/k23mqowwu-1714730577385.jpg?plan=h360"},"geometry":{"type":"Point","coordinates":[114.342458,30.55615]}},{"type":"Feature","properties":{"pid":"10dsigy","name":"Basilique du Sacré-Cœur de Montmartre","cn":"圣心大教堂","aid":1966,"ja":"のだめカンタービレ 巴里編","cn_anime":"交响情人梦 巴黎篇","color":"#5b5bdb","ep":0,"s":0,"image":"https://image.anitabi.cn/user/2173/bangumi/1966/points/10dsigy-1749210338465.jpg?plan=h360"},"geometry":{"type":"Point","coordinates":[2.343626,48.886148]}},{"type":"Feature","properties":{"pid":"5qy1vzdb","name":"襟裳岬 風の館","cn":0,"aid":1977,"ja":"北へ。〜Diamond Dust Drops〜","cn_anime":"向北","color":"#c6dce3","ep":0,"s":"13D0lAUu7JVTAgUhUJrLt0KjMXFo","image":"https://image.anitabi.cn/points/1977/5qy1vzdb_1730879866355.jpg?plan=h360"},"geometry":{"type":"Point","coordinates":[143.244714,41.925941]}},{"type":"Feature","properties":{"pid":"p8930gpbd","name":"千代田区立外濠公園（九段北4丁目側）","cn":0,"aid":198098,"ja":"citrus","cn_anime":"citrus～柑橘味香气～","color":"#f2ba5a","ep":0,"s":0,"image":"https://image.anitabi.cn/points/198098/p8930gpbd_1729318558861.jpg?plan=h360"},"geometry":{"type":"Point","coordinates":[139.738013,35.692649]}},{"type":"Feature","properties":{"pid":"omktu7428","name":"木更木橋","cn":0,"aid":198395,"ja":"One Room","cn_anime":null,"color":"#c69c8e","ep":0,"s":0,"image":"https://image.anitabi.cn/user/1099/bangumi/198395/points/omktu7428-1727619239576.jpg?plan=h360"},"geometry":{"type":"Point","coordinates":[139.800816,35.676668]}},{"type":"Feature","properties":{"pid":"nu2tux89j","name":"​八坂​の​塔","cn":"五重塔","aid":198962,"ja":"名探偵コナン から紅の恋歌","cn_anime":"名侦探柯南 殷红的恋歌","color":"#714739","ep":0,"s":0,"image":"https://image.anitabi.cn/user/2104/bangumi/198962/points/nu2tux89j-1725385882244.jpg?plan=h360"},"geometry":{"type":"Point","coordinates":[135.779231,34.998543]}},{"type":"Feature","properties":{"pid":"pasjbdgry","name":"Paramount Theatre","cn":"派拉蒙剧院","aid":200187,"ja":"The Last of Us: Part II","cn_anime":"最后生还者2","color":"#5b5bdb","ep":0,"s":0,"image":"https://image.anitabi.cn/user/0/bangumi/200187/points/pasjbdgry-1729517038337.jpg?plan=h360"},"geometry":{"type":"Point","coordinates":[-122.331342,47.61333]}},{"type":"Feature","properties":{"pid":"51i53t0vz","name":"桜ヶ池 エントランス広場 公園の橋","cn":0,"aid":200547,"ja":"サクラクエスト","cn_anime":"樱花任务","color":"#f2c4c6","ep":0,"s":"1SA1Rj9KDlPW6zRACAJYfHksqEa0","image":"https://image.anitabi.cn/points/200547/51i53t0vz_1730089412912.jpg?plan=h360"},"geometry":{"type":"Point","coordinates":[136.870693,36.499206]}},{"type":"Feature","properties":{"pid":"jvcmm8tit","name":"犬吠埼灯台","cn":"犬吠埼灯塔","aid":200704,"ja":"打ち上げ花火、下から見るか？横から見るか？","cn_anime":"烟花","color":"#0e559c","ep":0,"s":0,"image":"https://image.anitabi.cn/user/1058/bangumi/200704/points/jvcmm8tit-1714201107346.jpg?plan=h360"},"geometry":{"type":"Point","coordinates":[140.868451,35.707872]}},{"type":"Feature","properties":{"pid":"lv8h6dmyr","name":"真橋通西","cn":"真桥通木屋町通交口","aid":202240,"ja":"夜は短し歩けよ乙女","cn_anime":"春宵苦短，少女前进吧！","color":"#ff2b2b","ep":0,"s":0,"image":"https://image.anitabi.cn/points/202240/lv8h6dmyr_1728569035786.jpg?plan=h360"},"geometry":{"type":"Point","coordinates":[135.770394,35.004319]}},{"type":"Feature","properties":{"pid":"tkyanq3z8","name":"晴海通り","cn":"银座大表钟","aid":202419,"ja":"Re:CREATORS","cn_anime":"","color":"#56303d","ep":0,"s":0,"image":"https://image.anitabi.cn/user/0/bangumi/202419/points/tkyanq3z8-1741597499170.jpg?plan=h360"},"geometry":{"type":"Point","coordinates":[139.765172,35.671155]}},{"type":"Feature","properties":{"pid":"828apxn7r","name":"武汉市第十二中学","cn":0,"aid":202892,"ja":"三色△绘恋","cn_anime":null,"color":"#787878","ep":0,"s":0,"image":"https://image.anitabi.cn/user/0/bangumi/202892/points/828apxn7r-1680887073636.jpg?plan=h360"},"geometry":{"type":"Point","coordinates":[114.255284,30.591041]}},{"type":"Feature","properties":{"pid":"ig0giiig5","name":"Маяк Токаревского","cn":"托卡内夫灯塔","aid":204145,"ja":"ブレンド・S","cn_anime":"属性咖啡厅","color":"#ff557f","ep":0,"s":0,"image":"https://image.anitabi.cn/points/204145/ig0giiig5_1725829316043_c16v9.jpg?plan=h360"},"geometry":{"type":"Point","coordinates":[131.843084,43.073154]}},{"type":"Feature","properties":{"pid":"lnnhcu89h","name":"中華街","cn":"中華街","aid":2042,"ja":"きまぐれオレンジ☆ロード","cn_anime":"橙路","color":"#5555aa","ep":0,"s":0,"image":"https://image.anitabi.cn/user/0/bangumi/2042/points/lnnhcu89h-1719240308056.jpg?plan=h360"},"geometry":{"type":"Point","coordinates":[139.646966,35.443046]}},{"type":"Feature","properties":{"pid":"cd523c3a","name":"蔡菜食堂","cn":0,"aid":205013,"ja":"孤独のグルメ お正月スペシャル! ～井之頭五郎の長い一日～","cn_anime":"孤独的美食家 正月特别篇！～井之头五郎漫长的一天～","color":"#5b5bdb","ep":0,"s":"1KxS1OL9HWbLooqrakOl9078euRTKAQI","image":"https://image.anitabi.cn/points/205013/cd523c3a_1741374980724.jpg?plan=h360"},"geometry":{"type":"Point","coordinates":[139.664509,35.704664]}},{"type":"Feature","properties":{"pid":"1f682934","name":"美章園３丁目２−４","cn":"甘辛や","aid":205180,"ja":"孤独のグルメ Season6","cn_anime":"孤独的美食家 第六季","color":"#5b5bdb","ep":0,"s":"1GE1ISAyTQIxDPdviDs--H7muH6n--_g","image":"https://image.anitabi.cn/points/205180/1f682934_1741503107376.jpg?plan=h360"},"geometry":{"type":"Point","coordinates":[135.522444,34.638198]}},{"type":"Feature","properties":{"pid":"npwffb6z8","name":"龙虎山","cn":0,"aid":206925,"ja":"一人之下 the outcast 2","cn_anime":"一人之下 第二季","color":"#5b5bdb","ep":0,"s":0,"image":"https://image.anitabi.cn/user/0/bangumi/206925/points/npwffb6z8-1725058485797.jpg?plan=h360"},"geometry":{"type":"Point","coordinates":[116.998117,28.071262]}},{"type":"Feature","properties":{"pid":"9ebfbc97","name":"3話 県道10号線","cn":0,"aid":207195,"ja":"ゆるキャン△","cn_anime":"摇曳露营△","color":"#6a55aa","ep":0,"s":"1Hlzintz-iOT_6yI-xxGkQBWD-8FftQ-5","image":"https://image.anitabi.cn/points/207195/9ebfbc97_1719910526386.jpg?plan=h360"},"geometry":{"type":"Point","coordinates":[138.470931,35.26835]}},{"type":"Feature","properties":{"pid":"oszbrorzr","name":"墨東病院","cn":"东京都立墨东医院","aid":2074,"ja":"逮捕しちゃうぞ","cn_anime":"逮捕令","color":"#6e4228","ep":0,"s":0,"image":"https://image.anitabi.cn/user/0/bangumi/2074/points/oszbrorzr-1728121453923.jpg?plan=h360"},"geometry":{"type":"Point","coordinates":[139.818476,35.694557]}},{"type":"Feature","properties":{"pid":"p0rtov301","name":"八王子霊園東門前の電話ボックス","cn":0,"aid":207431,"ja":"死印","cn_anime":"死印","color":"#038c60","ep":0,"s":0,"image":"https://image.anitabi.cn/points/207431/p0rtov301_1728731606532.jpg?plan=h360"},"geometry":{"type":"Point","coordinates":[139.268599,35.66046]}},{"type":"Feature","properties":{"pid":"51i53tt4h","name":"東武東上線踏切","cn":0,"aid":207573,"ja":"月がきれい","cn_anime":"月色真美","color":"#a9a084","ep":0,"s":"1j5_m2Y05Hxauef1JtT3AKyzjw2U","image":"https://image.anitabi.cn/points/207573/51i53tt4h_1672371781492.jpg?plan=h360"},"geometry":{"type":"Point","coordinates":[139.476017,35.9152]}},{"type":"Feature","properties":{"pid":"rvslp09s6","name":"阿波連ビーチ","cn":"阿波连海滩","aid":207883,"ja":"阿波連さんははかれない","cn_anime":"测不准的阿波连同学","color":"#e3e3ff","ep":0,"s":0,"image":"https://image.anitabi.cn/user/2090/bangumi/207883/points/rvslp09s6-1736805093384.jpg?plan=h360"},"geometry":{"type":"Point","coordinates":[127.345932,26.170278]}},{"type":"Feature","properties":{"pid":"p47bce868","name":"グラストニア","cn":0,"aid":208146,"ja":"五等分の花嫁","cn_anime":"五等分的新娘","color":"#99cc00","ep":0,"s":0,"image":"https://image.anitabi.cn/user/2090/bangumi/208146/points/p47bce868-1729000532452.jpg?plan=h360"},"geometry":{"type":"Point","coordinates":[136.924202,35.150189]}},{"type":"Feature","properties":{"pid":"jq6i7zw13","name":"サンエトワール​地蔵​通り​店","cn":"山吹面包店原型","aid":208415,"ja":"バンドリ！ ガールズバンドパーティ！","cn_anime":"BanG Dream! 少女乐团派对！","color":"#5b5bdb","ep":0,"s":0,"image":"https://image.anitabi.cn/user/0/bangumi/208415/points/jq6i7zw13-1725272653993.jpg?plan=h360"},"geometry":{"type":"Point","coordinates":[139.73328,35.708059]}},{"type":"Feature","properties":{"pid":"qff5kle58","name":"庄川合口ダム","cn":"庄川合口水坝","aid":20851,"ja":"Another","cn_anime":null,"color":"#5b5bdb","ep":0,"s":0,"image":"https://image.anitabi.cn/user/0/bangumi/20851/points/qff5kle58-1732700718476.jpg?plan=h360"},"geometry":{"type":"Point","coordinates":[136.995515,36.575333]}},{"type":"Feature","properties":{"pid":"ne21nm","name":"USS North Carolina Battleship Memorial","cn":"北卡罗来纳号战列舰纪念馆","aid":208559,"ja":"碧蓝航线","cn_anime":"碧蓝航线","color":"#4697d6","ep":0,"s":0,"image":"https://image.anitabi.cn/user/0/bangumi/208559/points/ne21nm-1748424824399.jpg?plan=h360"},"geometry":{"type":"Point","coordinates":[-77.954356,34.236468]}},{"type":"Feature","properties":{"pid":"i2bfcybqq","name":"大洗​マリン​タワー","cn":"大洗海洋塔","aid":208825,"ja":"ガールズ&パンツァー 最終章 第2話","cn_anime":"少女与战车 最终章 第2话","color":"#634e47","ep":0,"s":0,"image":"https://image.anitabi.cn/user/0/bangumi/208825/points/i2bfcybqq-1709104857068.jpg?plan=h360"},"geometry":{"type":"Point","coordinates":[140.570639,36.310488]}},{"type":"Feature","properties":{"pid":"kqoxqmswc","name":"Santa Claus Village","cn":"无限轨道杯 大洗vs继续 战车道赛场","aid":208826,"ja":"ガールズ&パンツァー 最終章 第3話","cn_anime":"少女与战车 最终章 第3话","color":"#635547","ep":0,"s":0,"image":"https://image.anitabi.cn/user/0/bangumi/208826/points/kqoxqmswc-1716657726555.jpg?plan=h360"},"geometry":{"type":"Point","coordinates":[25.84693,66.54369]}},{"type":"Feature","properties":{"pid":"51i51p345","name":"神速一魂のいた交差点","cn":0,"aid":208930,"ja":"アイドルマスター SideM","cn_anime":"偶像大师 SideM","color":"#15be94","ep":0,"s":"1vZYxWYQiyWLLN9rDdYUWW7_wrKQZBeVL","image":"https://image.anitabi.cn/points/208930/51i51p345_1672372905770.jpg?plan=h360"},"geometry":{"type":"Point","coordinates":[139.805706,35.669627]}},{"type":"Feature","properties":{"pid":"4t2lo5bko","name":"1.1バスを見る","cn":0,"aid":210272,"ja":"ラブライブ! サンシャイン!! 二期","cn_anime":"LoveLive! Sunshine!! 二期","color":"#2a7acf","ep":0,"s":"1bLKGYdCayP9e5knF7dH5fT7WaVo-XveR","image":"https://image.anitabi.cn/points/210272/4t2lo5bko.jpg?plan=h360"},"geometry":{"type":"Point","coordinates":[138.905487,35.046395]}},{"type":"Feature","properties":{"pid":"namwbfhyw","name":"伏见见爱桥","cn":"伏见见爱桥","aid":210326,"ja":"君の膵臓をたべたい","cn_anime":"我想吃掉你的胰脏 真人电影版","color":"#554763","ep":0,"s":0,"image":"https://image.anitabi.cn/points/210326/namwbfhyw_1724029904943.jpg?plan=h360"},"geometry":{"type":"Point","coordinates":[135.756604,34.930017]}},{"type":"Feature","properties":{"pid":"nmeplq4y1","name":"Big Ben","cn":"大本钟","aid":210864,"ja":"魔法使いの嫁","cn_anime":"魔法使的新娘","color":"#8e551c","ep":0,"s":0,"image":"https://image.anitabi.cn/user/0/bangumi/210864/points/nmeplq4y1-1724784924585.jpg?plan=h360"},"geometry":{"type":"Point","coordinates":[-0.124499,51.500763]}},{"type":"Feature","properties":{"pid":"j9moh268k","name":"Big Fountains, Ueno Park 上野公園 大噴水","cn":"上野公园喷水池","aid":211066,"ja":"三ツ星カラーズ","cn_anime":"三颗星彩色冒险","color":"#c6b88e","ep":0,"s":0,"image":"https://image.anitabi.cn/user/0/bangumi/211066/points/j9moh268k-1712499501242.jpg?plan=h360"},"geometry":{"type":"Point","coordinates":[139.775026,35.716808]}},{"type":"Feature","properties":{"pid":"jyq9lfxe3","name":"水管橋","cn":"水管桥","aid":211089,"ja":"劇場版 響け！ユーフォニアム～届けたいメロディ～","cn_anime":"剧场版 吹响吧！上低音号～想要传达的旋律～","color":"#71c6e3","ep":0,"s":0,"image":"https://image.anitabi.cn/points/211089/jyq9lfxe3_1714465899645.jpg?plan=h360"},"geometry":{"type":"Point","coordinates":[135.802316,34.899291]}},{"type":"Feature","properties":{"pid":"n7wpg9fmk","name":"金具屋","cn":0,"aid":211934,"ja":"このはな綺譚","cn_anime":"此花绮谭","color":"#fbf1ac","ep":0,"s":0,"image":"https://image.anitabi.cn/user/1181/bangumi/211934/points/n7wpg9fmk-1723648537944.jpg?plan=h360"},"geometry":{"type":"Point","coordinates":[138.432901,36.734772]}},{"type":"Feature","properties":{"pid":"4ylxp6uiq","name":"東府中","cn":"东府中","aid":212003,"ja":"ウマ娘 プリティーダービー","cn_anime":"赛马娘 Pretty Derby","color":"#713947","ep":0,"s":0,"image":"https://image.anitabi.cn/user/1011/bangumi/212003/points/4ylxp6uiq.jpg?plan=h360"},"geometry":{"type":"Point","coordinates":[139.495314,35.668927]}},{"type":"Feature","properties":{"pid":"kjllr36y6","name":"ラーメン二郎 三田本店","cn":"拉面二郎 三田本店","aid":212146,"ja":"ラーメン大好き小泉さん","cn_anime":"爱吃拉面的小泉同学","color":"#e1a517","ep":0,"s":0,"image":"https://image.anitabi.cn/user/0/bangumi/212146/points/kjllr36y6-1716103117475.jpg?plan=h360"},"geometry":{"type":"Point","coordinates":[139.741637,35.648039]}},{"type":"Feature","properties":{"pid":"3aa8ngc7","name":"湘南深沢駅ホーム","cn":0,"aid":212278,"ja":"Just Because!","cn_anime":null,"color":"#3a4d42","ep":0,"s":"1aL7PTUG34bise1f87AZDensHuEfTLHDP","image":"https://image.anitabi.cn/points/212278/3aa8ngc7.jpg?plan=h360"},"geometry":{"type":"Point","coordinates":[139.518989,35.33298]}},{"type":"Feature","properties":{"pid":"51i53zgbs","name":"渋谷駅前交差点","cn":0,"aid":213076,"ja":"妹さえいればいい。","cn_anime":"如果有妹妹就好了。","color":"#b8b19c","ep":0,"s":"12xKowi_99aiqdmBiGKtjzbL57LT2n3Bx","image":"https://image.anitabi.cn/points/213076/51i53zgbs_1672367310534.jpg?plan=h360"},"geometry":{"type":"Point","coordinates":[139.700657,35.659256]}},{"type":"Feature","properties":{"pid":"ogoywb759","name":"津田塾大学前","cn":0,"aid":214265,"ja":"少女☆歌劇レヴュースタァライト","cn_anime":"少女☆歌剧 Revue Starlight","color":"#fb5458","ep":0,"s":0,"image":"https://image.anitabi.cn/points/214265/ogoywb759_1727158059642.jpg?plan=h360"},"geometry":{"type":"Point","coordinates":[139.464951,35.721865]}},{"type":"Feature","properties":{"pid":"oex0gzgbn","name":"千葉市立美濱打瀨小學校","cn":0,"aid":214272,"ja":"ようこそ実力至上主義の教室へ","cn_anime":"欢迎来到实力至上主义教室","color":"#aaaaaa","ep":0,"s":0,"image":"https://image.anitabi.cn/user/1099/bangumi/214272/points/oex0gzgbn-1727018894032.jpg?plan=h360"},"geometry":{"type":"Point","coordinates":[140.04432,35.637541]}},{"type":"Feature","properties":{"pid":"8d9496b4","name":"旧軽井沢銀座通り","cn":"旧轻井泽银座街","aid":214671,"ja":"スロウスタート","cn_anime":"Slow Start","color":"#ab6c7d","ep":0,"s":"1yHHheKqgV4d9Avuh1Pr4ou2z0-6emPCK","image":"https://image.anitabi.cn/points/214671/8d9496b4_1721191123881.jpg?plan=h360"},"geometry":{"type":"Point","coordinates":[138.634581,36.357646]}},{"type":"Feature","properties":{"pid":"51i53xg83","name":"鎌倉駅西口","cn":0,"aid":215158,"ja":"刀使ノ巫女","cn_anime":"刀使的巫女","color":"#be9083","ep":0,"s":"1V6vg2k48HH1I1yi1of4BP3ufB2O-MTtb","image":"https://image.anitabi.cn/points/215158/51i53xg83_1672367527771.jpg?plan=h360"},"geometry":{"type":"Point","coordinates":[139.549971,35.318744]}},{"type":"Feature","properties":{"pid":"rb1cvpjnb","name":"旧町立鎌掛小学校","cn":0,"aid":215425,"ja":"中二病でも恋がしたイ！-Take On Me-","cn_anime":"中二病也要谈恋爱！-Take On Me-","color":"#da33ff","ep":1,"s":0,"image":"https://image.anitabi.cn/user/1065/bangumi/215425/points/rb1cvpjnb-1735178192446.jpg?plan=h360"},"geometry":{"type":"Point","coordinates":[136.259682,34.989309]}},{"type":"Feature","properties":{"pid":"8dyofcfz0","name":"石垣空港","cn":0,"aid":215618,"ja":"劇場版 のんのんびより ばけーしょん","cn_anime":"剧场版 悠哉日常大王 Vacation","color":"#df66a6","ep":0,"s":0,"image":"https://image.anitabi.cn/user/0/bangumi/215618/points/8dyofcfz0-1681806346341.jpg?plan=h360"},"geometry":{"type":"Point","coordinates":[124.246227,24.390766]}},{"type":"Feature","properties":{"pid":"4ui7mhgea","name":"居酒屋/焼き鳥屋「庄助」","cn":0,"aid":216228,"ja":"孤独のグルメ","cn_anime":"孤独的美食家","color":"#aaaaaa","ep":0,"s":"1YSLKYDtt8UJkLHlnB54pPE4ezJg","image":"https://image.anitabi.cn/points/216228/4ui7mhgea.jpg?plan=h360"},"geometry":{"type":"Point","coordinates":[139.796384,35.671068]}},{"type":"Feature","properties":{"pid":"ly8ghwif1","name":"観音寺","cn":0,"aid":216310,"ja":"ヤマノススメ サードシーズン","cn_anime":"向山进发 第三季","color":"#634e47","ep":0,"s":0,"image":"https://image.anitabi.cn/points/216310/ly8ghwif1_1720069356586.jpg?plan=h360"},"geometry":{"type":"Point","coordinates":[139.312966,35.856027]}},{"type":"Feature","properties":{"pid":"nrfjuqzn5","name":"莵道高 正门","cn":0,"aid":216371,"ja":"リズと青い鳥","cn_anime":"莉兹与青鸟","color":"#aad480","ep":0,"s":0,"image":"https://image.anitabi.cn/user/2099/bangumi/216371/points/nrfjuqzn5-1725178522813.jpg?plan=h360"},"geometry":{"type":"Point","coordinates":[135.815658,34.908807]}},{"type":"Feature","properties":{"pid":"hsfz2u84q","name":"喜撰茶屋","cn":"喜撰茶屋","aid":216372,"ja":"劇場版 響け！ユーフォニアム～誓いのフィナーレ～","cn_anime":"吹响吧！上低音号～誓言的终章～","color":"#80552a","ep":1,"s":0,"image":"https://image.anitabi.cn/points/216372/hsfz2u84q_1716641920345.jpg?plan=h360"},"geometry":{"type":"Point","coordinates":[135.809707,34.888018]}},{"type":"Feature","properties":{"pid":"6ac4004d","name":"Babushkinskaya=bothanical gardens","cn":"植物园站","aid":216894,"ja":"","cn_anime":"地铁系列","color":"#3a3c48","ep":0,"s":"1KXC202pGW9wV-8swy-lkObZhsAID4iI","image":"https://image.anitabi.cn/points/216894/6ac4004d_1717325128363.jpg?plan=h360"},"geometry":{"type":"Point","coordinates":[37.638264,55.844835]}},{"type":"Feature","properties":{"pid":"plhnj7mw8","name":"横須賀中央駅","cn":"横须贺中央站","aid":2170,"ja":"スカイガールズ","cn_anime":"天翔少女","color":"#5b5bdb","ep":0,"s":0,"image":"https://image.anitabi.cn/points/5651/plhnj7mw8_1730355065640.jpg?plan=h360"},"geometry":{"type":"Point","coordinates":[139.670524,35.278585]}},{"type":"Feature","properties":{"pid":"k07n6ayk9","name":"西桐生駅","cn":0,"aid":21704,"ja":"真夏の夜の雪物語 -MIDSUMMER SNOW NIGHT-","cn_anime":"真夏之夜的雪物语","color":"#1a6dc7","ep":0,"s":0,"image":"https://image.anitabi.cn/user/1073/bangumi/21704/points/k07n6ayk9-1714582299754.jpg?plan=h360"},"geometry":{"type":"Point","coordinates":[139.333763,36.413956]}},{"type":"Feature","properties":{"pid":"51i53vgw4","name":"境の明神前","cn":0,"aid":217249,"ja":"こみっくがーるず","cn_anime":"漫画女孩","color":"#fb4d7a","ep":0,"s":"1LmjWI46K5WWGNP7saTiZ9jkol4HOqbrt","image":"https://image.anitabi.cn/points/217249/51i53vgw4_1727588662370.jpg?plan=h360"},"geometry":{"type":"Point","coordinates":[140.185873,37.068946]}},{"type":"Feature","properties":{"pid":"4yr1ytrl1","name":"渋谷スクランブル交差点","cn":0,"aid":217833,"ja":"ブルーピリオド","cn_anime":"蓝色时期","color":"#0055aa","ep":0,"s":0,"image":"https://image.anitabi.cn/user/0/bangumi/217833/points/4yr1ytrl1.jpg?plan=h360"},"geometry":{"type":"Point","coordinates":[139.700506,35.659468]}},{"type":"Feature","properties":{"pid":"8fizr286q","name":"館林駅","cn":"馆林车站","aid":218708,"ja":"宇宙よりも遠い場所","cn_anime":"比宇宙更远的地方","color":"#ea8015","ep":0,"s":0,"image":"https://image.anitabi.cn/user/0/bangumi/218708/points/8fizr286q-1681928964395.jpg?plan=h360"},"geometry":{"type":"Point","coordinates":[139.527983,36.246286]}},{"type":"Feature","properties":{"pid":"tkxyd9jpg","name":"宫下公园人行天桥","cn":0,"aid":218711,"ja":"ダーリン・イン・ザ・フランキス","cn_anime":"DARLING in the FRANXX","color":"#5b5bdb","ep":0,"s":0,"image":"https://image.anitabi.cn/user/0/bangumi/218711/points/tkxyd9jpg-1741596646053.jpg?plan=h360"},"geometry":{"type":"Point","coordinates":[139.702174,35.661433]}},{"type":"Feature","properties":{"pid":"51i51tb8g","name":"リサイクルショップザック 高円寺店1","cn":0,"aid":218712,"ja":"SSSS.GRIDMAN","cn_anime":"SSSS.古立特","color":"#d73e4a","ep":0,"s":"1lKpy5FEiX-0WW8pLVArhx47NxZBydez4","image":"https://image.anitabi.cn/points/218712/51i51tb8g_1672369741185.jpg?plan=h360"},"geometry":{"type":"Point","coordinates":[139.644641,35.69767]}},{"type":"Feature","properties":{"pid":"8e84f5cd","name":"魚見塚展望台","cn":0,"aid":21900,"ja":"輪廻のラグランジェ","cn_anime":"轮回的拉格朗日","color":"#409fbf","ep":0,"s":"1wbGrDaMnLazVTKxneeFus5kjMGNuj-U","image":"https://image.anitabi.cn/points/21900/8e84f5cd_1727722483632.jpg?plan=h360"},"geometry":{"type":"Point","coordinates":[140.099993,35.0938]}},{"type":"Feature","properties":{"pid":"ppafouedv","name":"外滩","cn":0,"aid":219141,"ja":"我为歌狂之旋律重启","cn_anime":null,"color":"#152a40","ep":0,"s":0,"image":"https://image.anitabi.cn/points/219141/ppafouedv_1730653059692.jpg?plan=h360"},"geometry":{"type":"Point","coordinates":[121.486293,31.238937]}},{"type":"Feature","properties":{"pid":"u3qz210j5","name":"鹿島明神社","cn":0,"aid":219200,"ja":"からかい上手の高木さん","cn_anime":"擅长捉弄的高木同学","color":"#5ad5f7","ep":0,"s":0,"image":"https://image.anitabi.cn/points/219200/u3qz210j5_1743070350439.jpg?plan=h360"},"geometry":{"type":"Point","coordinates":[134.169935,34.474006]}},{"type":"Feature","properties":{"pid":"51i53uttt","name":"博多駅博多口①","cn":0,"aid":219568,"ja":"博多豚骨ラーメンズ","cn_anime":"博多豚骨拉面","color":"#2d6c73","ep":0,"s":"1Op8ZzPUUN81L3j_m5t2k90CM_QQOGdmZ","image":"https://image.anitabi.cn/points/219568/51i53uttt_1672369184494.jpg?plan=h360"},"geometry":{"type":"Point","coordinates":[130.419197,33.589435]}},{"type":"Feature","properties":{"pid":"o6dw7ddp2","name":"関西将棋会館","cn":"关西将棋会馆","aid":219658,"ja":"りゅうおうのおしごと！","cn_anime":"龙王的工作！","color":"#d4aa2b","ep":0,"s":0,"image":"https://image.anitabi.cn/user/0/bangumi/219658/points/o6dw7ddp2-1726350410622.jpg?plan=h360"},"geometry":{"type":"Point","coordinates":[135.487377,34.698859]}},{"type":"Feature","properties":{"pid":"5gr3r7z9n","name":"京都动画本社","cn":"京都动画本社","aid":220188,"ja":"バジャのスタジオ","cn_anime":"巴加的工作室","color":"#ffae00","ep":0,"s":0,"image":"https://image.anitabi.cn/user/0/bangumi/220188/points/5gr3r7z9n-1673561736637.jpg?plan=h360"},"geometry":{"type":"Point","coordinates":[135.798642,34.924702]}},{"type":"Feature","properties":{"pid":"8f471798","name":"あざまサンサンビーチ","cn":0,"aid":220375,"ja":"はるかなレシーブ","cn_anime":"遥的接球","color":"#bd84cd","ep":0,"s":"1e7vKGRKEh2ClJ695Sap-tdJ5zIV7NxAe","image":"https://image.anitabi.cn/points/220375/8f471798_1726058954600.jpg?plan=h360"},"geometry":{"type":"Point","coordinates":[127.829188,26.178313]}},{"type":"Feature","properties":{"pid":"51i52jc74","name":"みずほ台駅ホーム","cn":0,"aid":220445,"ja":"22/7","cn_anime":null,"color":"#eabfd5","ep":1,"s":"1Kdnhs7juvw0c50olonEteLA4j4BTXbA","image":"https://image.anitabi.cn/points/220445/51i52jc74_1724216695589.jpg?plan=h360"},"geometry":{"type":"Point","coordinates":[139.550806,35.838271]}},{"type":"Feature","properties":{"pid":"jvlurjb37","name":"葉秀倉庫","cn":"叶秀仓库","aid":220514,"ja":"僕が愛したすべての君へ","cn_anime":"致我深爱的每个你","color":"#6a7f95","ep":0,"s":0,"image":"https://image.anitabi.cn/user/1058/bangumi/220514/points/jvlurjb37-1714221361360.jpg?plan=h360"},"geometry":{"type":"Point","coordinates":[131.615067,33.261538]}},{"type":"Feature","properties":{"pid":"fd65824d","name":"千光寺新道","cn":0,"aid":220658,"ja":"ソラとウミのアイダ","cn_anime":"天空与海洋之间","color":"#b19cb8","ep":0,"s":"12knoMwET3PK-esyJlzOGesZXej-Qf1Ln","image":"https://image.anitabi.cn/points/220658/fd65824d_1742550363464.jpg?plan=h360"},"geometry":{"type":"Point","coordinates":[133.199154,34.409138]}},{"type":"Feature","properties":{"pid":"ko3qiowh3","name":"七島展望台","cn":0,"aid":220848,"ja":"つうかあ","cn_anime":"侧车搭档","color":"#1b9371","ep":0,"s":"1RFkyA8UMYhikLp8Lcnkk897pC3pADhE","image":"https://image.anitabi.cn/points/220848/ko3qiowh3_1716454412550.jpg?plan=h360"},"geometry":{"type":"Point","coordinates":[139.508732,34.069258]}},{"type":"Feature","properties":{"pid":"soshawim8","name":"歌木駅","cn":"谷保站","aid":220921,"ja":"サクラノ刻 -櫻の森の下を歩む-","cn_anime":"樱之刻 - 于樱花之森下漫步","color":"#956a75","ep":0,"s":0,"image":"https://image.anitabi.cn/user/0/bangumi/220921/points/soshawim8-1739077358774.jpg?plan=h360"},"geometry":{"type":"Point","coordinates":[139.446644,35.681848]}},{"type":"Feature","properties":{"pid":"pj6gdn4r5","name":"外滩","cn":"外滩","aid":221020,"ja":"全职高手 特别篇","cn_anime":"全职高手 特别篇","color":"#5b5bdb","ep":0,"s":0,"image":"https://image.anitabi.cn/user/0/bangumi/221020/points/pj6gdn4r5-1730173960319.jpg?plan=h360"},"geometry":{"type":"Point","coordinates":[121.486412,31.238419]}},{"type":"Feature","properties":{"pid":"idlgbsz0w","name":"渋谷スクランブル交差点","cn":0,"aid":221062,"ja":"PERSONA5 the Animation","cn_anime":"女神异闻录5 the Animation","color":"#6a7f95","ep":0,"s":0,"image":"https://image.anitabi.cn/user/1042/bangumi/221062/points/idlgbsz0w-1709988853261.jpg?plan=h360"},"geometry":{"type":"Point","coordinates":[139.700598,35.659403]}},{"type":"Feature","properties":{"pid":"5qpzrja4","name":"旧小樽倉庫","cn":0,"aid":221127,"ja":"ゴールデンカムイ","cn_anime":"黄金神威","color":"#cc7900","ep":0,"s":"1OnOJkoybO7gH-0omYq0F20Xdsys","image":"https://image.anitabi.cn/user/0/bangumi/221127/points/5qpzrja4-1725151541194.jpg?plan=h360"},"geometry":{"type":"Point","coordinates":[141.000627,43.20047]}},{"type":"Feature","properties":{"pid":"niz8v2qyx","name":"潘吉普伊湖","cn":"潘吉普伊湖","aid":221227,"ja":"我的三体 罗辑传","cn_anime":null,"color":"#152040","ep":0,"s":0,"image":"https://image.anitabi.cn/user/0/bangumi/221227/points/niz8v2qyx-1724516269985.jpg?plan=h360"},"geometry":{"type":"Point","coordinates":[-72.09357,-39.820808]}},{"type":"Feature","properties":{"pid":"lpaa5zaxy","name":"西门城楼","cn":0,"aid":221333,"ja":"昨日青空","cn_anime":null,"color":"#407fbf","ep":0,"s":0,"image":"https://image.anitabi.cn/user/1120/bangumi/221333/points/lpaa5zaxy-1719368046529.jpg?plan=h360"},"geometry":{"type":"Point","coordinates":[119.46979,29.211254]}},{"type":"Feature","properties":{"pid":"kpx6ojhqf","name":"博多駅","cn":0,"aid":221736,"ja":"君の膵臓をたべたい","cn_anime":"我想吃掉你的胰脏","color":"#aa6a55","ep":0,"s":"1tGFyH0fu1bvrw4KDgYVv-nOKoWda8A7A","image":"https://image.anitabi.cn/user/1053/bangumi/221736/points/kpx6ojhqf-1722143365690.jpg?plan=h360"},"geometry":{"type":"Point","coordinates":[130.419208,33.590126]}},{"type":"Feature","properties":{"pid":"ujkw9o23x","name":"Round 1 Stadium ラウンドワンスタジアム ダイバーシティ東京 プラザ店","cn":0,"aid":222145,"ja":"9-nine-そらいろそらうたそらのおと Episode.2 Sora Nimi","cn_anime":"9-nine-天色天歌天籁音","color":"#5b5bdb","ep":0,"s":0,"image":"https://image.anitabi.cn/user/2171/bangumi/222145/points/ujkw9o23x-1744311016118.jpg?plan=h360"},"geometry":{"type":"Point","coordinates":[139.776203,35.625511]}},{"type":"Feature","properties":{"pid":"p8819s8yk","name":"新宿 ダイビル","cn":0,"aid":22290,"ja":"WHITE ALBUM2 -closing chapter-","cn_anime":"白色相簿2 终章","color":"#0044c2","ep":0,"s":0,"image":"https://image.anitabi.cn/user/2135/bangumi/22290/points/p8819s8yk-1729315475691.jpg?plan=h360"},"geometry":{"type":"Point","coordinates":[139.701074,35.692439]}},{"type":"Feature","properties":{"pid":"5oy8l32ds","name":"伊豆山神社","cn":0,"aid":224173,"ja":"綺麗にしてもらえますか。","cn_anime":"能帮我弄干净吗？","color":"#8eaac6","ep":0,"s":"13T-zPIf3EhNzHrHWGNlqy84lU61LJtVz","image":"https://image.anitabi.cn/points/224173/5oy8l32ds_1674204220976.jpg?plan=h360"},"geometry":{"type":"Point","coordinates":[139.083128,35.114957]}},